SKN,Station.Name,Observer,Network,Island,ELEV.m.,LAT,LON,NCEI.id,NWS.id,NESDIS.id,SCAN.id,SMART_NODE_RF.id
1,Kalae,USCG,STATE,BI,11,18.91617582,-155.6749942,NA,NA,NA,NA,NA
1.1,Morse Field,US AIR FORCE,STATE,BI,12,18.91367961,-155.6805497,NA,NA,NA,NA,NA
1.2,Kalae S Trk Sta,SPACE TECH LAB,STATE,BI,93,18.93866881,-155.680549,NA,NA,NA,NA,NA
2,MANUKA 2,STATE DIV OF FTRY,COOP,BI,534,19.10866032,-155.8255447,USC00516134,NA,NA,NA,NA
2.1,KAHUKU MAUKA,COOP,COOP,BI,957,19.1089,-155.7467,USC00512566,NA,NA,NA,NA
2.11,Bottom 1916 Flow,HOLUALOA RANCH,STATE,BI,845,19.22310147,-155.7952647,NA,NA,NA,NA,NA
2.12,Top Terr Boy,HOLUALOA RANCH,STATE,BI,1046,19.18588011,-155.8222097,NA,NA,NA,NA,NA
2.13,100 Acres,PUUWAAWAA RANCH,STATE,BI,1280,19.1961578,-155.8035985,NA,NA,NA,NA,NA
2.14,Kapua Mauka,HOLUALOA RANCH,STATE,BI,1409,19.18532491,-155.7888767,NA,NA,NA,NA,NA
2.15,Pa Hanalei Pen,HOLUALOA RANCH,STATE,BI,1220,19.2036575,-155.813876,NA,NA,NA,NA,NA
2.16,Castle Padd Tank,HOLUALOA RANCH,STATE,BI,1540,19.21365726,-155.7888761,NA,NA,NA,NA,NA
2.17,Okoe,PUUWAAWAA RANCH,STATE,BI,485,19.16699076,-155.8652659,NA,NA,NA,NA,NA
2.18,Kole Pen,PUUWAAWAA RANCH,STATE,BI,280,19.13865819,-155.875544,NA,NA,NA,NA,NA
2.2,Kahuku Shed 3,KAHUKU RANCH,STATE,BI,1491,19.16474,-155.68228,NA,NA,NA,NA,NA
2.22,Furlka,PUUWAAWAA RANCH,STATE,BI,976,19.18199125,-155.8255431,NA,NA,NA,NA,NA
2.23,Bill Jack,HOLUALOA RANCH,STATE,BI,628,19.18199061,-155.8505432,NA,NA,NA,NA,NA
2.24,Kau,WINFORD GARDENS,STATE,BI,720,19.10866081,-155.7958228,NA,NA,NA,NA,NA
2.25,Reservoir (2940),PUUWAAWAA RANCH,STATE,BI,896,19.16060318,-155.8224882,NA,NA,NA,NA,NA
2.26,Castle,PUUWAAWAA RANCH,STATE,BI,1732,19.22532337,-155.7788762,NA,NA,NA,NA,NA
2.3,Hoopuloa Upper,DOMKOWICZ RYS,STATE,BI,739,19.21032328,-155.8522094,NA,NA,NA,NA,NA
2.31,South Kona,MRS C CARLSON,STATE,BI,808,19.09699465,-155.7497122,NA,NA,NA,NA,NA
2.32,SOUTH KONA 2 2.32,COOP,COOP,BI,647,19.10778,-155.78944,USC00518652,NA,NA,NA,NA
2.34,MILOLII 2.34,COOP,COOP,BI,280,19.186302,-155.886763,USC00516304,NA,NA,NA,NA
2.35,HONOMALINO 2.35,COOP,COOP,BI,610,19.201,-155.843,USC00511922,NA,NA,NA,NA
2.36,KAPUA 2.36,COOP,COOP,BI,533,19.14472,-155.84944,USC00513376,NA,NA,NA,NA
2.4,Hoopuloa Lower,EDWARDS EH,STATE,BI,503,19.19698981,-155.8688765,NA,NA,NA,NA,NA
2.7,Kahuku Plant,ARNEMANN WHG,STATE,BI,732,19.23587837,-155.8585982,NA,NA,NA,NA,NA
2.8,Top Coffee Papa,HOLUALOA RANCH,STATE,BI,625,19.19532346,-155.855543,NA,NA,NA,NA,NA
2.9,Kapulepu,HOLUALOA RANCH,STATE,BI,579,19.18199051,-155.8555432,,NA ,NA,NA ,NA
3,South Pt Corral,PARKER RANCH,STATE,BI,122,18.94700043,-155.6799932,NA,NA,NA,NA,NA
3.1,Kahuku 2 Makai,KAHUKU RANCH,STATE,BI,1311,19.13838146,-155.6986016,NA,NA,NA,NA,NA
3.11,MAUKA RESERVOIR 3.11,COOP,COOP,BI,1521,19.1618,-155.6695,USC00516144,NA,NA,NA,NA
3.2,Kahuku Shed I,KAHUKU RANCH,STATE,BI,1067,19.11421567,-155.6972128,NA,NA,NA,NA,NA
3.22,HAWAIIAN OCEAN VIEW 4.7 NNE,HAWAIIAN OCEAN VIEW 4.7 NNE,CoCoRaHS,BI,1273,19.135,-155.747,US1HIHI0035,NA,NA,NA,NA
3.23,CAPTAIN COOK 2.9 SSE,CAPTAIN COOK 2.9 SSE,CoCoRaHS,BI,238,19.4594,-155.8938,US1HIHI0019,NA,NA,NA,NA
3.3,Kealakoa,KAHUKU RANCH,STATE,BI,945,19.11504791,-155.6330485,NA,NA,NA,NA,NA
3.4,Kahiawai,SMITH RUSSELL,STATE,BI,1128,19.12754937,-155.7577673,NA,NA,NA,NA,NA
3.5,Glover,KAHUKU RANCH,STATE,BI,1207,19.12782672,-155.7180456,NA,NA,NA,NA,NA
3.6,Manuwai Nui,KAHUKU RANCH,STATE,BI,1146,19.12310389,-155.6766578,NA,NA,NA,NA,NA
3.8,Kahiawai Mauka,SMITH R,STATE,BI,1256,19.13227142,-155.759156,NA,NA,NA,NA,NA
3.9,LOWER KAHUKU CS,LOWER KAHUKU CS,RAWS,BI,953.7192,19.10083333,-155.6697222,NA,LKHH1,32D620C2,NA,NA
4,Kamaoa,KAWAIHAE RANCH,STATE,BI,326,19.0042156,-155.6638817,NA,NA,NA,NA,NA
4.1,Kahuku Rch Hse,KAHUKU RANCH,STATE,BI,610,19.05532714,-155.6922135,NA,NA,NA,NA,NA
4.11,Kamaoa,KAWAIHAE RANCH,STATE,BI,327,19.04143649,-155.6277712,NA,NA,NA,NA,NA
4.12,NAALEHU 4.6 WSW,NAALEHU 4.6 WSW,CoCoRaHS,BI,391,19.0424,-155.6354,US1HIHI0001,NA,NA,NA,NA
4.13,NAALEHU 5.0 WSW,NAALEHU 5.0 WSW,CoCoRaHS,BI,436,19.0424,-155.643,US1HIHI0010,NA,NA,NA,NA
4.14,"NAALEHU 4.7 WSW, HI US",CoCoRaHs,CoCoRaHs,BI,393.18,19.0421,-155.6371,US1HIHI0057,NA,NA,NA,NA
4.15,SOUTH POINT NEAR NAALEHU 12SSW,NWS,STATE,BI,295.78,18.9928,-155.668,NA,SOPH1,B1507246,NA,NA
4.2,Keaa Homesteads,BARTELS MRS F,STATE,BI,512,19.04365913,-155.6588813,NA,NA,NA,NA,NA
4.3,Kaalualu Bay,HUTCHINSON SUGAR,STATE,BI,6,18.97033138,-155.6138838,NA,NA,NA,NA,NA
4.6,George Peck,KAHUKU RANCH,STATE,BI,312,18.99893763,-155.657493,NA,NA,NA,NA,NA
4.9,Kaalualu,HAWN RANCH,STATE,BI,5,18.93777778,-155.6458333,NA,NA,NA,NA,NA
5,KAHUKU MAUKA 2.10,PARKER RANCH,STATE,BI,419,19.02532608,-155.6672146,NA,NA,NA,NA,NA
5.1,Kamaoa Puueo 5.1,COOP,COOP,BI,317,19.01361,-155.66194,USC00513054,NA,NA,NA,NA
6,KIOLAKAA A&F 6,STATE DIV FTRY,COOP,BI,587,19.07032619,-155.6355484,USC00514625,NA,NA,NA,NA
6.1,Kau-Hayselden,HAYSELDEN WH,STATE,BI,564,19.07532634,-155.6222157,NA,NA,NA,NA,NA
6.2,NAALEHU 5.7 W,NAALEHU 5.7 W,CoCoRaHS,BI,679,19.0732,-155.6632,US1HIHI0012,NA,NA,NA,NA
6.3,KAHUKU MILL CAMP 6.3,COOP,COOP,BI,668,19.0654,-155.6781,USC00512568,NA,NA,NA,NA
7,Kiolakaa-Hayseld,HAYSELDEN WH,STATE,BI,320,19.05032561,-155.6222157,NA,NA,NA,NA,NA
7.1,Field 140,HUTCHINSON SUGAR,STATE,BI,442,19.07032708,-155.5972166,NA,NA,NA,NA,NA
9,Punaluu Kahawai,STATE DIV FTRY,STATE,BI,1890,19.24698362,-155.6055497,NA,NA,NA,NA,NA
9.1,Mauna Loa,KAHUKU RANCH,STATE,BI,1890,19.24365061,-155.6105496,NA,NA,NA,NA,NA
9.2,Nene Cabin,Nene Cabin,RAWS,BI,1991.7737,19.2564,-155.6144,NA,NENH1,32D64524,NA,NA
10.1,New Mt House Rd,HUTCHINSON SUGAR,STATE,BI,585,19.12199154,-155.593328,NA,NA,NA,NA,NA
11.2,Haao Springs,HUTCHINSON SUGAR,STATE,BI,823,19.08782636,-155.619438,NA,NA,NA,NA,NA
11.3,Field 450,HUTCHINSON SUGAR,STATE,BI,671,19.10699234,-155.5930502,NA,NA,NA,NA,NA
11.4,Field 350,HUTCHINSON SUGAR,STATE,BI,585,19.08449338,-155.5916613,NA,NA,NA,NA,NA
12,Kaala Iki,KAU SUGAR,STATE,BI,409,19.12532461,-155.5622178,NA,NA,NA,NA,NA
12.1,Hilea,HUTCHINSON SUGAR,STATE,BI,101,19.13365789,-155.5355517,NA,NA,NA,NA,NA
12.11,Field 765,HUTCHINSON SUGAR,STATE,BI,518,19.16782193,-155.5472179,NA,NA,NA,NA,NA
12.12,Field 715,HUTCHINSON SUGAR,STATE,BI,351,19.16337795,-155.5336071,NA,NA,NA,NA,NA
12.13,Hilea Gulch Trib,USGS,STATE,BI,927,19.17421032,-155.597217,NA,NA,NA,NA,NA
12.15,SEA MOUNTAIN 12.15,SEA MOUNTAIN,COOP,BI,21,19.13310292,-155.5152744,USC00518600,NA,NA,NA,NA
12.7,Field 656,HUTCHINSON SUGAR,STATE,BI,534,19.14976747,-155.5791617,NA,NA,NA,NA,NA
12.8,Field 750,HUTCHINSON SUGAR,STATE,BI,646,19.17976517,-155.5722178,NA,NA,NA,NA,NA
12.9,Field 850,HUTCHINSON SUGAR,STATE,BI,595,19.17893212,-155.5527735,NA,NA,NA,NA,NA
13,Waiubata,HUTCHINSON SUGAR,STATE,BI,419,19.09643735,-155.5672178,NA,NA,NA,NA,NA
13.2,Field 435,HUTCHINSON SUGAR,STATE,BI,549,19.10532565,-155.5772175,NA,NA,NA,NA,NA
13.3,Field 51,HUTCHINSON SUGAR,STATE,BI,530,19.12032479,-155.5738842,NA,NA,NA,NA,NA
13.7,Naalehu Airstrip,HUTCHINSON SUGAR,STATE,BI,360,19.07532737,-155.5758284,NA,NA,NA,NA,NA
13.8,Kaala Iki Astrip,HUTCHINSON SUGAR,STATE,BI,534,19.13004644,-155.5738842,NA,NA,NA,NA,NA
14,NAALEHU 14,KAU SUGAR,COOP,BI,206,19.06032754,-155.5855501,USC00516588,NA,NA,NA,NA
14.1,Honuapo  25,HUTCHINSON SUGAR,STATE,BI,578,19.08032814,-155.5541624,NA,NA,NA,NA,NA
14.2,Naalehu Hewitt,GC HEWITT,STATE,BI,381,19.06366105,-155.5805503,NA,NA,NA,NA,NA
14.3,Naalehu (1725),HEWITT GC,STATE,BI,526,19.08032681,-155.5972167,NA,NA,NA,NA,NA
15,Honuapo,HUTCHINSON SUGAR,STATE,BI,6,19.0917161,-155.5488851,NA,NA,NA,NA,NA
16,Moaula Tunnel,HAWN AG,STATE,BI,915,19.21837381,-155.5438844,NA,NA,NA,NA,NA
16.1,Field 009,HAWN AG,STATE,BI,709,19.19698641,-155.5472179,NA,NA,NA,NA,NA
17,Moaula Res,HAWN AG,STATE,BI,595,19.19837542,-155.5272179,NA,NA,NA,NA,NA
17.1,Moaula-Willis,WILLIS TC,STATE,BI,518,19.19698684,-155.5138847,NA,NA,NA,NA,NA
17.2,Higashi Camp,HAWN AG,STATE,BI,491,19.19865342,-155.5111068,NA,NA,NA,NA,NA
18,Moaula,Kapapala RANCH,STATE,BI,183,19.18032172,-155.4922181,NA,NA,NA,NA,NA
20,Alili Tunnel 2,HAWN AG,STATE,BI,854,19.22531792,-155.5172177,NA,NA,NA,NA,NA
20.2,Alili,HAWN AG,STATE,BI,854,19.22004051,-155.5211066,NA,NA,NA,NA,NA
20.4,Field 100,HAWN AG,STATE,BI,816,19.2303176,-155.5091621,NA,NA,NA,NA,NA
20.5,Field 303,KAU PLANTATION,STATE,BI,866,19.24559424,-155.4983287,NA,NA,NA,NA,NA
21,Pahala,KAU SUGAR,HydroNet-UaNet,BI,346.8624,19.2042999,-155.4872,USC00517421,PPLH1,B16084B2,NA,NA
21.3,PAHALA MAUKA 21.3,COOP,COOP,BI,332,19.20667,-155.48861,USC00517437,NA,NA,NA,NA
21.4,"HAWAIIAN OCEAN VIEW 1.7 NNE, HI US",CoCoRaHs,CoCoRaHs,BI,733.03,19.0908,-155.7552,US1HIHI0059,NA,NA,NA,NA
22,Keaiwa,HAWN AG,STATE,BI,503,19.23365092,-155.4769399,NA,NA,NA,NA,NA
22.1,KEAIWA CAMP,KAU SUGAR,STATE,BI,518,19.2336509,-155.4788844,NA,NA,NA,NA,NA
23,KAHUKU,RAWS,RAWS,BI,1796.4912,19.23222222,-155.78,NA,KRCH1,32639544,NA,NA
24,Ohia Lodge,REDFEARN MRS A,STATE,BI,402,19.2636556,-155.8741544,NA,NA,NA,NA,NA
24.1,OPIHIHALE 2 24.1,TRUMAN LORNA,COOP,BI,396,19.27032215,-155.8738768,USC00517166,NA,NA,NA,NA
24.2,Kaohe-Brown,BROWN DM,STATE,BI,290,19.31198823,-155.8772104,NA,NA,NA,NA,NA
24.4,KAOHE MAKAI 24.4,COOP,COOP,BI,37,19.317,-155.883,USC00513146,NA,NA,NA,NA
25,Pahoehoe,LINCOLN LP,STATE,BI,305,19.34393212,-155.8749878,NA,NA,NA,NA,NA
25.1,Kalahiki (750),MCDOUGALL GW,STATE,BI,229,19.40948383,-155.8894343,NA,NA,NA,NA,NA
25.2,Kalahiki (1500),MCDOUGALL GW,STATE,BI,457,19.38031887,-155.8638781,NA,NA,NA,NA,NA
25.3,Hookena,ENDO CAROLYN,STATE,BI,259,19.38031884,-155.8805447,NA,NA,NA,NA,NA
25.4,Kalahiki (1800),MCDOUGALL GW,STATE,BI,549,19.41198392,-155.8722121,NA,NA,NA,NA,NA
25.5,Mccandless Off,MCCANDLESS RANCH,STATE,BI,262,19.37698576,-155.8772112,NA,NA,NA,NA,NA
25.6,Kahauko Pen,MCCANDLESS RANCH,STATE,BI,70,19.37698549,-155.8938779,NA,NA,NA,NA,NA
25.7,Pahoehoe Ranch,MAGOON ESTATE,STATE,BI,335,19.33864,-155.87191,NA,NA,NA,NA,NA
26,Takashiba,KONA EXP STATION,STATE,BI,640,19.49031296,-155.895546,NA,NA,NA,NA,NA
26.2,KEALAKEKUA 26.2,GREENWELL ESTATE,COOP,BI,442,19.48975723,-155.9122125,USC00513977,NA,NA,NA,NA
26.3,Waipunaula,BRENNER GEO,STATE,BI,707,19.49420151,-155.8930461,NA,NA,NA,NA,NA
27,HONAUNAU 27,TANAKA S,COOP,BI,332,19.4403158,-155.8788789,USC00511665,NA,NA,NA,NA
27.1,Uyeda-Honaunau,BISHOP ESTATE,STATE,BI,210,19.43198288,-155.8872122,NA,NA,NA,NA,NA
27.2,Honaunau Forst 1,BISHOP ESTATE,STATE,BI,683,19.4119837,-155.8572121,NA,NA,NA,NA,NA
27.3,Honaunau Forst 2,BISHOP ESTATE,STATE,BI,1052,19.41698295,-155.8372123,NA,NA,NA,NA,NA
27.4,PUUHONUA O HONA 27.4,HAW NATL HSTL PA,COOP,BI,5,19.4184,-155.9112,USC00518552,NA,NA,NA,NA
27.5,Honaunau-Steffen,STEFFEN GE,STATE,BI,299,19.41753913,-155.8813788,NA,NA,NA,NA,NA
27.6,Honaunau No. 2,NWS,HydroNet-UaNet,BI,398.0688,19.4629002,-155.8824,NA,HAUH1,15D12742,NA,NA
28,NAPOOPOO 28,KONA EXP STATION,COOP,BI,122,19.46864784,-155.9055458,USC00516697,NA,NA,NA,NA
28.1,Napoopoo 16,AMERICAN FACTORS,STATE,BI,5,19.47336949,-155.9188791,NA,NA,NA,NA,NA
28.2,Keei Middle Rd,GLASS EE,STATE,BI,207,19.46198161,-155.8972124,NA,NA,NA,NA,NA
28.3,Kahauloa 2,BISHOP ESTATE,STATE,BI,463,19.46364797,-155.8788793,NA,NA,NA,NA,NA
28.4,Keei Makai 2,BISHOP ESTATE,STATE,BI,1769,19.44531561,-155.8916567,NA,NA,NA,NA,NA
28.5,CAPTAIN COOK 3.4 SSE,CAPTAIN COOK 3.4 SSE,CoCoRaHS,BI,385,19.4572,-155.8794,US1HIHI0045,NA,NA,NA,NA
28.6,Napoopookai,COULTER BRUCE,STATE,BI,3,19.46836978,-155.9211013,NA,NA,NA,NA,NA
28.7,Kealakekua #2,MEIER MRS LILAH,STATE,BI,442,19.49697886,-155.9138792,NA,NA,NA,NA,NA
28.9,Honaunau,MCLEAN-HUMPHREY,STATE,BI,349,19.44975979,-155.8805456,NA,NA,NA,NA,NA
29,KAAWALOA 29,CAPT COOK INVEST,COOP,BI,409,19.4919792,-155.9172124,USC00512327,NA,NA,NA,NA
29.1,Kealakekua-Davis,DAVIS REV SH,STATE,BI,482,19.50697819,-155.9172125,NA,NA,NA,NA,NA
29.12,Kealakekua,NWS,HydroNet-UaNet,BI,537.972,19.5181007,-155.9159,NA,KLEH1,81708572,NA,NA
29.2,Kalukalu,GREENWELL EC,STATE,BI,457,19.50864472,-155.9205458,NA,NA,NA,NA,NA
29.3,Konawaena,BUTTLES W,STATE,BI,482,19.50864475,-155.9172126,NA,NA,NA,NA,NA
29.4,Konawaena School,KONAWAENA SCH AG,STATE,BI,509,19.50864479,-155.9138793,NA,NA,NA,NA,NA
29.5,Kanakamelai,WH GREENWELL ESTATE,STATE,BI,951,19.53364313,-155.8805471,NA,NA,NA,NA,NA
29.6,Onouli,MITCHELL DR J,STATE,BI,412,19.50031189,-155.9208235,NA,NA,NA,NA,NA
29.8,Onouli (1600),GREENWELL ESTATE,STATE,BI,488,19.50197854,-155.9138792,NA,NA,NA,NA,NA
29.9,Malukalu,GREENWELL ESTATE,STATE,BI,780,19.5142001,-155.8949909,NA,NA,NA,NA,NA
30,Komakawai,MCCANDLESS RANCH,STATE,BI,1875,19.39864788,-155.7716573,NA,NA,NA,NA,NA
30.1,Big Hill,MCCANDLESS RANCH,STATE,BI,1415,19.40031632,-155.8122122,NA,NA,NA,NA,NA
30.2,Palipakika,MCCANDLESS RANCH,STATE,BI,945,19.38031865,-155.8472114,NA,NA,NA,NA,NA
30.3,Kiilae Stream,USGS,STATE,BI,884,19.41142799,-155.846101,NA,NA,NA,NA,NA
31,Haupuu,MCCANDLESS RANCH,STATE,BI,1372,19.43142557,-155.8119351,NA,NA,NA,NA,NA
34,Kapapala Ranch,NWS,HydroNet-UaNet,BI,638.556,19.2754993,-155.4514,USC00513300,KAYH1,B16097C4,NA,NA
35,Wood Valley Tunn,HAWN AG,STATE,BI,1037,19.27031477,-155.4955512,NA,NA,NA,NA,NA
35.2,Wood Valley Camp,HAWN AG,STATE,BI,655,19.26864852,-155.4705514,NA,NA,NA,NA,NA
35.3,Wood Valley 2000,HAWN AG,STATE,BI,610,19.2469831,-155.480551,NA,NA,NA,NA,NA
35.4,Wood Valley Res,HAWN AG,STATE,BI,753,19.27198146,-155.4855513,NA,NA,NA,NA,NA
35.6,Wood Valley,HAWN AG,STATE,BI,671,19.27031505,-155.4741625,NA,NA,NA,NA,NA
36,Kapapala,Kapapala RANCH,STATE,BI,652,19.27698138,-155.4505518,NA,NA,NA,NA,NA
36.1,Field 481,HAWN AG,STATE,BI,991,19.3003131,-155.4688851,NA,NA,NA,NA,NA
36.2,Field 480,HAWN AG,STATE,BI,938,19.29697994,-155.463885,NA,NA,NA,NA,NA
36.3,KAPAPALA RANCH,KAPAPALA RANCH,RAWS,BI,1081,19.25811,-155.441781,NA,KPRH1,AA10E258,NA,NA
37,Pakao,Kapapala RANCH,STATE,BI,1572,19.36864279,-155.4638871,NA,NA,NA,NA,NA
37.1,Mauna Anu,KAPAPALA RANCH,STATE,BI,2012,19.34697668,-155.5138856,NA,NA,NA,NA,NA
38.5,Kalapana 2,HAW VOL NAT PARK,STATE,BI,18,19.28392871,-155.1166644,NA,NA,NA,NA,NA
38.6,Naulu Forest,HAW VOL NAT PARK,STATE,BI,427,19.31531454,-155.1322199,NA,NA,NA,NA,NA
38.7,Kipuka Nene,HAW VOL NATL PARK,STATE,BI,892,19.32642878,-155.2780526,NA,NA,NA,NA,NA
38.8,KEALAKOMO 38.8,COOP,COOP,BI,84,19.29472,-155.14444,USC00514080,NA,NA,NA,NA
38.9,KAELAKOMO,KAELAKOMO,RAWS,BI,29.5656,19.29277778,-155.1075,NA,KMOH1,32807432,NA,NA
39,Mauna Loa Observatory,NWS,ESRL/GMD,BI,3397,19.5362,-155.5763,USC00516198,MOBH1,NA,NA,NA
39.1,Mauna Loa Upper,NWS,STATE,BI,3341,19.53863295,-155.5722206,NA,NA,NA,NA,NA
39.2,MAUNA LOA 5 NNE,MAUNA LOA 5 NNE,USCRN,BI,3398,19.5354,-155.576,USW00021514,MLBH1,CD07379A,NA,NA
43.2,Pahua Mimi,KAPAPALA RANCH,STATE,BI,1567,19.41530774,-155.4155555,NA,NA,NA,NA,NA
43.3,PUHE CS,PUHE CS,RAWS,BI,34.126,20.025,-155.8211111,NA,PHRH1,32D61558,NA,NA
44,Ohaikea,HAWN RANCH,STATE,BI,1061,19.404617,-155.342992,NA,NA,NA,NA,NA
44.1,Ohaikea (3750),USDA FRUIT FLY L,STATE,BI,1143,19.42197578,-155.3272225,NA,NA,NA,NA,NA
45,Kekekaniho,KAPAPALA RANCH,STATE,BI,1433,19.45363981,-155.3305566,NA,NA,NA,NA,NA
45.2,Mauna Loa Truck,USDA FRUIT FLY L,STATE,BI,1555,19.46697199,-155.3475012,NA,NA,NA,NA,NA
45.4,Maunaloa T 5300,UH BOTANY DEPT,STATE,BI,2012,19.46947176,-155.3541678,NA,NA,NA,NA,NA
45.5,Maunaloa T 6600,UH BOTANY DEPT,STATE,BI,2287,19.49058134,-155.3855564,NA,NA,NA,NA,NA
46,7500,BALDWIN PAUL,STATE,BI,2287,19.48030335,-155.4222225,NA,NA,NA,NA,NA
46.1,6700,BALDWIN PAUL,STATE,BI,2043,19.46919317,-155.4083338,NA,NA,NA,NA,NA
46.11,Kalanaokuaiki,BALDWIN PAUL,STATE,BI,1021,19.37475671,-155.2363879,NA,NA,NA,NA,NA
46.12,Kipuka Nene #3,BALDWIN PAUL,STATE,BI,915,19.33281667,-155.2783305,NA,NA,NA,NA,NA
46.13,Kipuka Nene #2,BALDWIN PAUL,STATE,BI,915,19.33281667,-155.2783305,NA,NA,NA,NA,NA
46.14,Kipuka Papalinam,BALDWIN PAUL,STATE,BI,762,19.31698707,-155.2519419,NA,NA,NA,NA,NA
46.15,Kipuka Keanabiho,BALDWIN PAUL,STATE,BI,716,19.31476284,-155.3072175,NA,NA,NA,NA,NA
46.2,5900,BALDWIN,STATE,BI,1799,19.46363826,-155.3916673,NA,NA,NA,NA,NA
46.3,5500,BALDWIN PAUL,STATE,BI,1677,19.47363808,-155.3630566,NA,NA,NA,NA,NA
46.4,4400,BALDWIN PAUL,STATE,BI,1341,19.43169672,-155.3416672,NA,NA,NA,NA,NA
46.5,Bird Park,BALDWIN PAUL,STATE,BI,1235,19.44197457,-155.2983344,NA,NA,NA,NA,NA
46.8,Lua Manu,BALDWIN PAUL,STATE,BI,1116,19.39919969,-155.2544442,NA,NA,NA,NA,NA
46.9,Ainahou Gate,BALDWIN PAUL,STATE,BI,936,19.35114724,-155.2258315,NA,NA,NA,NA,NA
47,KEMOKU LAVA FLOW,RAWS,RAWS,BI,1706.88,19.47555556,-155.3627778,USR0000HKEA,KKUH1,FA4447E8,NA,NA
48,PALI 2,RAWS,RAWS,BI,847.344,19.3175,-155.2922222,USR0000HPAL,PLIH1,FA900222,NA,NA
49,KEAUMO,RAWS,RAWS,BI,1682.496,19.47361111,-155.3588889,USR0000HKMO,HKMO,NA,NA,NA
51,Kilauea N Rim,WENTWORTH CK,STATE,BI,1235,19.43697516,-155.2705566,NA,NA,NA,NA,NA
51.1,Keauhou,WH SHIPMAN,STATE,BI,1220,19.43864165,-155.27889,NA,NA,NA,NA,NA
51.13,Vol Golf Course,MAUNA LOA OBSV,STATE,BI,1220,19.43864167,-155.2761122,NA,NA,NA,NA,NA
51.2,Kilauea Camp,HAW VOL NAT PARK,STATE,BI,1148,19.40531048,-155.2577778,NA,NA,NA,NA,NA
51.3,Olaa 29 Miles,GIFFARD WM,STATE,BI,1159,19.43030925,-155.25139,NA,NA,NA,NA,NA
51.4,Volcano House,VOLCANO HOUSE,STATE,BI,1212,19.42864255,-155.2588899,NA,NA,NA,NA,NA
51.5,Volcano Farm Lot,GALBRAITH WR,STATE,BI,1174,19.4653072,-155.2488911,NA,NA,NA,NA,NA
51.7,Mauna Loa Truck,USDA FRUIT FLY L,STATE,BI,1220,19.43864136,-155.3083342,NA,NA,NA,NA,NA
51.8,Kipuka Ki,USDA FRUIT FLY L,STATE,BI,1296,19.44336304,-155.3172232,NA,NA,NA,NA,NA
51.9,Volcano Golf Cou,WRISTON ARTHUR,STATE,BI,1280,19.48086163,-155.2669465,NA,NA,NA,NA,NA
52,HAWAII VOL. NATIONAL PARK HQ. 54,HAW VOL NAT PARK,COOP,BI,1113,19.40197768,-155.2805552,USC00511033,NA,NA,NA,NA
54,HAWAII VOLCNS NP HQ 54,HAW VOL NATL PARK,COOP,BI,1210,19.429741,-155.257146,USC00511303,NA,NA,NA,NA
54.1,Ohianlani Dairy,ENGLISH MISS M,STATE,BI,1152,19.42669854,-155.2386123,NA,NA,NA,NA,NA
54.14,Devastation Area,HAW VOL NAT PARK,STATE,BI,1116,19.3958665,-155.261944,NA,NA,NA,NA,NA
54.2,Glenwood,HELBUSH XL,HydroNet-UaNet,BI,802.2336,19.5076008,-155.1707,USC00510744,GLNH1,NA,NA,NA
54.3,Glenwood-P Sug,PUNA SUGAR,STATE,BI,665,19.52030552,-155.1372266,NA,NA,NA,NA,NA
54.4,26 Miles,SHIPMAN WH,STATE,BI,1052,19.44003119,-155.2111136,NA,NA,NA,NA,NA
54.5,Haunani Road,HORNER EUGENE,STATE,BI,1189,19.43030932,-155.2472234,NA,NA,NA,NA,NA
54.7,Kilauea Iki #1,HAW VOL NAT PK,STATE,BI,1070,19.41419906,-155.2483338,NA,NA,NA,NA,NA
54.8,Thurston,Thurston,HavoNet,BI,1202,19.41528,-155.23833,NA,NA,NA,NA,NA
54.9,Ola a,Ola a,HavoNet,BI,1040,19.47833,-155.215,NA,NA,NA,NA,NA
55,Volcano Haunani,MCBRIDE RICHARD,STATE,BI,1140,19.43225376,-155.2375015,NA,NA,NA,NA,NA
55.1,VOLCANO 4.3 SSE,VOLCANO 4.3 SSE,CoCoRaHS,BI,1059,19.4391,-155.2156,US1HIHI0013,NA,NA,NA,NA
55.2,VOLCANO 4.5 S,VOLCANO 4.5 S,CoCoRaHS,BI,1117,19.4333,-155.228,US1HIHI0017,NA,NA,NA,NA
55.3,VOLCANO 4.4 S,VOLCANO 4.4 S,CoCoRaHS,BI,1158,19.4338,-155.2417,US1HIHI0040,NA,NA,NA,NA
55.4,GLENWOOD NO 2 55.4,COOP,COOP,BI,671,19.52194,-155.14389,USC00510746,NA,NA,NA,NA
55.5,MOUNTAIN VIEW 0.6 ESE,MOUNTAIN VIEW 0.6 ESE,CoCoRaHS,BI,663,19.5179,-155.1402,US1HIHI0042,NA,NA,NA,NA
55.6,VOLCANO 4.0,COOP,COOP,BI,1194.8,19.441359,-155.2487445,US1HIHI0071,NA,NA,NA,NA
56,S Glenwood,SUSAN CAREY,STATE,BI,649,19.33031822,-155.3138836,NA,NA,NA,NA,NA
57,KUPU KUPU,RAWS,RAWS,BI,710.4888,19.34805556,-155.1258333,NA,NA,NA,NA,NA
58,Ainahou,SHIPMAN WH,STATE,BI,907,19.34420357,-155.2294425,NA,NA,NA,NA,NA
58.1,Ainahou Makai,SHIPMAN WH,STATE,BI,838,19.33531532,-155.2205533,NA,NA,NA,NA,NA
58.2,Ainahou Stl Tk,SHIPMAN WH,STATE,BI,907,19.34337023,-155.2261091,NA,NA,NA,NA,NA
59,Makaopuhi,HAW VOLCANO OBS,STATE,BI,872,19.36281255,-155.1749988,NA,NA,NA,NA,NA
63,KALOKO-HONOKOHAU,RAWS,RAWS,BI,7.62,19.67277778,-156.0202778,NA,KHOH1,FA667668,NA,NA
64,PAHOA SCHOOL SITE 64,PAHOA SCHOOL SITE 64,STATE,BI,208,19.4904,-154.9432,NA,NA,NA,NA,NA
65,PAHOA 65,PUNA SUGAR,COOP,BI,204,19.49197865,-154.9455586,USC00517457,NA,NA,NA,NA
65.1,Waiakaheula,GOUDIE W,STATE,BI,229,19.50031124,-154.9355587,NA,NA,NA,NA,NA
65.2,Lower Pahoa,PUNA SUGAR,STATE,BI,116,19.52058697,-154.9222264,NA,NA,NA,NA,NA
65.3,Upper Pahoa,PUNA SUGAR,STATE,BI,357,19.458085,-154.972228,NA,NA,NA,NA,NA
65.4,PAHOA 2.1 E,PAHOA 2.1 E,CoCoRaHS,BI,137,19.5043,-154.9165,US1HIHI0003,NA,NA,NA,NA
65.6,"KURTISTOWN 6.6 SSE, HI US",CoCoRaHs,CoCoRaHs,BI,339.63,19.5021,-155.029,US1HIHI0055,NA,NA,NA,NA
66,Kapoho Upper,PUNA SUGAR,STATE,BI,122,19.48864456,-154.8738924,NA,NA,NA,NA,NA
66.1,Lava Tree Park,STATE DIV PARKS,STATE,BI,198,19.48364556,-154.9038917,NA,NA,NA,NA,NA
66.3,Kapoho,WINFORD GARDENS,STATE,BI,61,19.48170105,-154.8555587,NA,NA,NA,NA,NA
66.5,Malama Ki Farm,UAES,STATE,BI,105,19.46031311,-154.8847242,NA,NA,NA,NA,NA
66.6,PAHOA 3.3 SEE,COOP,COOP,BI,254.2,19.459069,-154.921985,US1HIHI0052,NA,NA,NA,NA
67,Kamaile,PUNA SUGAR,STATE,BI,171,19.43364418,-154.9305556,NA,NA,NA,NA,NA
67.1,Kalapana(Wilson),WE WILSON,STATE,BI,3,19.35197941,-154.9741642,NA,NA,NA,NA,NA
67.11,Leilani Estate,ROSS GIDLEY,STATE,BI,221,19.45448236,-154.906945,NA,NA,NA,NA,NA
67.12,LAE APUKI 67.12,COOP,COOP,BI,24,19.3918,-154.9313,USC00515150,NA,NA,NA,NA
67.13,PAHOA 7.5 S,PAHOA 7.5 S,CoCoRaHS,BI,23,19.3918,-154.9313,US1HIHI0008,NA,NA,NA,NA
67.14,"PAHOA 3.0 SSE, HI US",CoCoRaHs,CoCoRaHs,BI,284.69,19.4573,-154.9338,US1HIHI0056,NA,NA,NA,NA
67.2,Kaueleau,HENDERSON AR,STATE,BI,305,19.45809107,-154.9388901,NA,NA,NA,NA,NA
67.3,Kaueleau 2,GREEN JS,STATE,BI,107,19.44031411,-154.905556,NA,NA,NA,NA,NA
67.4,Pokoiki,RYCROFT R,STATE,BI,3,19.46031494,-154.8472247,NA,NA,NA,NA,NA
67.5,Hayhalalekai,HAY C,STATE,BI,5,19.47198119,-154.8322251,NA,NA,NA,NA,NA
67.6,Kapaahu,USDA FRUIT FLY L,STATE,BI,30,19.35364168,-154.992219,NA,NA,NA,NA,NA
67.7,PAHOA 2.7 SSE,PAHOA 2.7 SSE,CoCoRaHS,BI,259,19.4654,-154.927,US1HIHI0051,NA,NA,NA,NA
67.8,Kalapana No 1,HAW VOL NAT PARK,STATE,BI,3,19.32698155,-155.0286094,NA,NA,NA,NA,NA
67.9,KEAUOHANA 67.9,COOP,COOP,BI,232,19.4132,-154.9522,USC00514171,NA,NA,NA,NA
68,Holualoa Beach,DILLINGHAM INV CO,STATE,BI,3,19.60530476,-155.9755468,NA,NA,NA,NA,NA
68.1,Middle Holualoa,CAPT COOK CATTLE,STATE,BI,145,19.60336072,-155.960547,NA,NA,NA,NA,NA
68.11,P Empress Hotel,P EMPRESS HOTEL,STATE,BI,37,19.63474693,-155.9872138,NA,NA,NA,NA,NA
68.12,Kailua-K,Kailua-K,NREL,BI,4,19.728144,-156.058936,NA,NA,NA,NA,NA
68.13,KE-AHOLE POINT 68.13,FAA-HAWN AIRLINE,COOP,BI,3,19.72779668,-156.0586039,USC00513911,NA,NA,NA,NA
68.14,HONOKOHAU HARBOR 68.14,COOP,COOP,BI,9,19.67944,-156.02333,USC00511880,NA,NA,NA,NA
68.15,Kailua Hts,PHAILO GILLARD,STATE,BI,152,19.6136377,-155.9638804,NA,NA,NA,NA,NA
68.16,Holualoa-Stecker,STECKER H C,STATE,BI,233,19.60586062,-155.9561027,NA,NA,NA,NA,NA
68.18,K100,G KOIKE,STATE,BI,451,19.61919321,-155.9461028,NA,NA,NA,NA,NA
68.19,K101,G KOIKE,STATE,BI,268,19.61863748,-155.9572138,NA,NA,NA,NA,NA
68.2,LANIHAU 68.2,KONA EXP STATION,COOP,BI,466,19.66196803,-155.9588816,USC00515330,NA,NA,NA,NA
68.21,KAILUA KONA KE AHOLE AIRPORT,KAILUA KONA KE AHOLE AIRPORT,NWS,BI,27,19.73556,-156.04889,USW00021510,PHKO,NA,NA,NA
68.22,HOLUALOA 4.0 NW,HOLUALOA 4.0 NW,CoCoRaHS,BI,416,19.6799,-155.9699,US1HIHI0049,NA,NA,NA,NA
68.3,KONA AIRPORT 68.3,HAWN AIRLINES,STATE,BI,5,19.64363491,-156.0072139,USC00514764,NA,NA,NA,NA
68.4,Kailua Kona,PARKER G,STATE,BI,6,19.6386355,-155.9905472,NA,NA,NA,NA,NA
68.5,Holualoa (1450),KONA DEVELOP CO,STATE,BI,442,19.61530451,-155.9505472,NA,NA,NA,NA,NA
68.6,Lanihau,FW BARTELS,STATE,BI,470,19.66363453,-155.9638815,NA,NA,NA,NA,NA
68.7,Lanihau Mauka 1,KONA EXP STATION,STATE,BI,588,19.66530124,-155.9505484,NA,NA,NA,NA,NA
68.8,Lanihau Mauka 2,HWA,STATE,BI,744,19.66530131,-155.9405488,NA,NA,NA,NA,NA
68.9,Lanihau Mauka 3,HWA,STATE,BI,884,19.6669679,-155.9305492,NA,NA,NA,NA,NA
69,Kahaluu Beach,PUUWAAWAA RANCH,STATE,BI,12,19.57641794,-155.966102,NA,NA,NA,NA,NA
69.1,Ohia Liilii,HUEHUE RANCH,STATE,BI,1372,19.7186307,-155.9305503,NA,NA,NA,NA,NA
69.11,Laaloa,MILLER CD,STATE,BI,244,19.5936393,-155.9522137,NA,NA,NA,NA,NA
69.16,Holualoa Makai,WEINRICH SID,STATE,BI,317,19.62280389,-155.9555471,NA,NA,NA,NA,NA
69.18,Hualalai Ranch,HUALALAI RANCH,STATE,BI,860,19.73779569,-155.9572158,NA,NA,NA,NA,NA
69.19,Hualalai R Mauka,HUALALAI RANCH,STATE,BI,1159,19.73390724,-155.9416608,NA,NA,NA,NA,NA
69.2,Kahaluu,KONA EXPT STATION,STATE,BI,329,19.59030624,-155.9472137,NA,NA,NA,NA,NA
69.21,Lolola,FITZGIBBON W,STATE,BI,366,19.72612933,-155.988882,NA,NA,NA,NA,NA
69.22,KALAOA 69.22,FLOYD  MC COY,STATE,BI,609.6,19.72529635,-155.9722154,USC00512887,NA,NA,NA,NA
69.23,Kona Sunshine Es,NICHOLS R C,STATE,BI,274,19.59169499,-155.9508248,NA,NA,NA,NA,NA
69.24,MOANUIAHEA 69.24,COOP,COOP,BI,860,19.7391,-155.9583,USC00516330,NA,NA,NA,NA
69.25,Palamanui,Hilo Forest Service,HIPPNET,BI,297,19.73756,-155.99582,NA,NA,NA,NA,NA
69.26,KALAOA 2.2 ESE,KALAOA 2.2 ESE,CoCoRaHS,BI,398,19.7189,-155.9859,US1HIHI0038,NA,NA,NA,NA
69.27,KALAOA 1.7,KALAOA 1.7,CoCoRaHS,BI,304.5,19.7238,-155.9926,US1HIHI0006,,,,NA
69.28,Kailua-Kona HI US G0154-W6SPO-13 ,unknown,APRSWXNET,BI,0,19.707,-155.978,NA,G0154,NA,NA,NA
69.3,Honokohau Ranch,GREENWELL EC,STATE,BI,389,19.6836329,-155.9738818,NA,NA,NA,NA,NA
69.4,Kohanaiki,AMERICAN FACTORS,STATE,BI,482,19.70696432,-155.9755486,NA,NA,NA,NA,NA
69.5,Kaiolu,JC TYLER SR,STATE,BI,9,19.61863691,-155.9861025,NA,NA,NA,NA,NA
69.51,Kailua Kona HI US E6648-EW6648 ,unknown,APRSWXNET,BI,164.05,19.61,-155.96,NA,E6648,NA,NA,NA
69.6,Kuona Olu,EDNIE D,STATE,BI,3,19.60863781,-155.9786024,NA,NA,NA,NA,NA
69.7,Kailua-Yowell,YOWELL WS,STATE,BI,290,19.64696891,-155.963881,NA,NA,NA,NA,NA
69.8,Lion Grass,PUUWAAWAA RANCH,STATE,BI,305,19.62197061,-155.9555471,NA,NA,NA,NA,NA
69.9,Keopu Mcwayne,PUUWAAWAA RANCH,STATE,BI,244,19.64502453,-155.9672142,NA,NA,NA,NA,NA
70,HOLUALOA 70,STATE DIV FTRY,COOP,BI,982,19.6347,-155.9078,USC00511557,NA,NA,NA,NA
70.1,Halepiula Shed,PUUWAAWAA RANCH,STATE,BI,1372,19.73196263,-155.8572198,NA,NA,NA,NA,NA
70.11,Kileo,PUUWAAWAA RANCH,STATE,BI,1335,19.72973994,-155.8263869,NA,NA,NA,NA,NA
70.12,Shangrila,PUUWAAWAA RANCH,STATE,BI,1334,19.7325179,-155.8438867,NA,NA,NA,NA,NA
70.13,Panicum Field,PALANI RANCH,STATE,BI,634,19.60752745,-155.9305476,NA,NA,NA,NA,NA
70.14,Reservoir (5080),PALANI RANCH,STATE,BI,1549,19.62919182,-155.851106,NA,NA,NA,NA,NA
70.15,Shangrila Mauka,PUUWAAWAA RANCH,STATE,BI,1448,19.72779615,-155.8511087,NA,NA,NA,NA,NA
70.16,Waiaha Stream,NWS,HydroNet-UaNet,BI,460.5528,19.6331997,-155.9486,NA,WIHH1,9321011E,NA,NA
70.2,Kaalapuuali,HONOKOHAU RANCH,STATE,BI,1372,19.62363684,-155.86055,NA,NA,NA,NA,NA
70.3,Holualoa-Smith,SMITH MRS TWIGG,STATE,BI,369,19.6119714,-155.9511027,NA,NA,NA,NA,NA
70.4,Holualoa Camp,HUEHUE RANCH,STATE,BI,1354,19.64363591,-155.8838834,NA,NA,NA,NA,NA
70.5,Waiaha Stream 1,BWS,STATE,BI,470,19.63197014,-155.9472142,NA,NA,NA,NA,NA
70.6,Waiaha Stream 2,USGS,USGS,BI,628,19.63363677,-155.9372146,NA,NA,NA,NA,NA
70.7,Puuwaawaa,Hilo Forest Service,HIPPNET,BI,1659,19.72544,-155.87389,NA,NA,NA,NA,NA
70.8,Rt Br Waiaha St,USGS,STATE,BI,1006,19.64196959,-155.9119379,NA,NA,NA,NA,NA
71,HONUAULA 71,STATE DIV FTRY,COOP,BI,1905,19.671,-155.8764,USC00512047,NA,NA,NA,NA
71.1,Waihou I,PUUWAAWAA RANCH,STATE,BI,1018,19.75696073,-155.8538864,NA,NA,NA,NA,NA
72,HUALALAI 72,STATE DIV FTRY,COOP,BI,2499,19.68863263,-155.870552,USC00512151,NA,NA,NA,NA
73,Puu Lehua,GREENWELL ESTATE,STATE,BI,1479,19.56530574,-155.8055495,NA,NA,NA,NA,NA
73.1,Keauhou 73a,BISHOP ESTATE,STATE,BI,576,19.5569752,-155.9222134,NA,NA,NA,NA,NA
73.11,Kahaluu Forest,BISHOP ESTATE,STATE,BI,1006,19.58697317,-155.8955481,NA,NA,NA,NA,NA
73.13,Honalo 1,WODEHOUSE CN,STATE,BI,451,19.54892007,-155.9288797,NA,NA,NA,NA,NA
73.17,Puu O Hau,WH GREENWELL ESTATE,STATE,BI,3,19.50697799,-155.9505451,NA,NA,NA,NA,NA
73.18,Pineapple,GREENWELL ESTATE,STATE,BI,244,19.5036449,-155.9338788,NA,NA,NA,NA,NA
73.19,Honalo,PUUWAAWAA RANCH,STATE,BI,122,19.55669709,-155.9544349,NA,NA,NA,NA,NA
73.2,KAINALIU 73.2,KONA EXP STATION,COOP,BI,457,19.53364321,-155.9255461,USC00512751,NA,NA,NA,NA
73.21,Honalo 3,WODEHOUSE CN,STATE,BI,915,19.55836392,-155.8952697,NA,NA,NA,NA,NA
73.23,Field E,KONA EXP STATION,STATE,BI,524,19.53503206,-155.9205462,NA,NA,NA,NA,NA
73.24,Railroad,WALL RANCH,STATE,BI,207,19.53364304,-155.9424901,NA,NA,NA,NA,NA
73.25,Pali Honohono,WALL RANCH,STATE,BI,1037,19.56808534,-155.8824924,NA,NA,NA,NA,NA
73.26,Hokakano Beach,ACKERMAN RANCH,STATE,BI,0,19.52558798,-155.9555453,NA,NA,NA,NA,NA
73.27,Honalo Mauka,HIDEMANN ED,STATE,BI,488,19.54280936,-155.9249908,NA,NA,NA,NA,NA
73.28,Waihou,HIDEMANN ED,STATE,BI,756,19.53530984,-155.9008245,NA,NA,NA,NA,NA
73.29,Kainaliu Upper,NWS,HydroNet-UaNet,BI,713.232,19.5310993,-155.9066,NA,KNUH1,NA,NA,NA
73.3,Mokuaikaua Rd,BISHOP ESTATE,STATE,BI,604,19.57697391,-155.923325,NA,NA,NA,NA,NA
73.31,Puuloa-Alter,ALTER MRS N,STATE,BI,305,19.5589193,-155.9419352,NA,NA,NA,NA,NA
73.32,Honalo,E FINEFROCK,STATE,BI,442,19.53308764,-155.9291571,NA,NA,NA,NA,NA
73.34,Kainaliu,SCAN,SCAN,BI,416,19.53333333,-155.9333333,NA,NA,NA,2096,NA
73.4,Keauhou Tst Ste,HWA,STATE,BI,622,19.57530736,-155.9222139,NA,NA,NA,NA,NA
73.5,Keauhou 2,BISHOP ESTATE,STATE,BI,640,19.5603083,-155.9169358,NA,NA,NA,NA,NA
73.6,Honalo 2,WODEHOUSE CN,STATE,BI,549,19.54892013,-155.9238799,NA,NA,NA,NA,NA
73.7,Lehuula,WALL RANCH,STATE,BI,430,19.53530976,-155.9272128,NA,NA,NA,NA,NA
73.8,Hokukano Makai,ACKERMAN RANCH,STATE,BI,152,19.52364363,-155.9422121,NA,NA,NA,NA,NA
73.9,Hokukano Mauka,ACKERMAN RANCH,STATE,BI,430,19.52364378,-155.9238793,NA,NA,NA,NA,NA
74,Kanahaha,GREENWELL ESTATE,STATE,BI,1543,19.58863713,-155.7922171,NA,NA,NA,NA,NA
74.1,Kaukahoku,WALL RANCH,STATE,BI,1229,19.57197354,-155.8588819,NA,NA,NA,NA,NA
74.2,Kahaluu Forest 2,BISHOP ESTATE,STATE,BI,1402,19.60419327,-155.8430498,NA,NA,NA,NA,NA
74.4,Monohaa,WALL RANCH,STATE,BI,1220,19.5486417,-155.8558258,NA,NA,NA,NA,NA
74.5,New Field,GREENWELL RANCH,STATE,BI,1453,19.54641816,-155.8083267,NA,NA,NA,NA,NA
74.6,Kikiaeae,GREENWELL RANCH,STATE,BI,1674,19.55336097,-155.7766609,NA,NA,NA,NA,NA
74.7,Momohaa (3875),GREENWELL RANCH,STATE,BI,1181,19.54919725,-155.8577702,NA,NA,NA,NA,NA
74.8,KEALAKEKUA 4 74.8,COOP,COOP,BI,433,19.5106,-155.9217,USC00513987,NA,NA,NA,NA
75,Ahua Umi,GREENWELL ESTATE,STATE,BI,1591,19.63363389,-155.7788854,NA,NA,NA,NA,NA
75.1,PTA KIPUKA ALALA,RAWS,RAWS,BI,1641.348,19.66694444,-155.7077778,USR0000HPTK,PKAH1,32666200,NA,NA
76,KULANI MAUKA 76,NWS,COOP,BI,2530,19.58363059,-155.4538895,USC00515018,NA,NA,NA,NA
77.8,Airport-K Ranch,KEALAKEKUA RANCH,STATE,BI,1433,19.51808673,-155.8097148,NA,NA,NA,NA,NA
77.9,Orchard,GREENWELL RANCH,STATE,BI,1143,19.52197681,-155.8552696,NA,NA,NA,NA,NA
78,KULANI SCHOOL SITE 78,DEPT SOCIAL SVC,COOP,BI,1741,19.5819662,-155.3338911,USC00515021,NA,NA,NA,NA
79,KULANI CAMP 79,DEPT SOCIAL SVC,COOP,BI,1576,19.54863532,-155.3005575,USC00515011,NA,NA,NA,NA
79.1,Upper Waiakea,STATE DIV FTRY,STATE,BI,1829,19.57224615,-155.1955599,NA,NA,NA,NA,NA
79.5,Kulani Farm,UH EXP STA,STATE,BI,1628,19.55807904,-155.3111132,NA,NA,NA,NA,NA
79.6,Kulani NWR,NWS,HydroNet-UaNet,BI,1623.3648,19.5543995,-155.3089,NA,KNWH1,NA,NA,NA
80,Kalaieha,PARKER RANCH,STATE,BI,2046,19.70057058,-155.4616682,NA,NA,NA,NA,NA
80.1,Humuula-Parker,PARKER S JR,STATE,BI,2038,19.70529263,-155.4722236,NA,NA,NA,NA,NA
81,Kulani Ditch,DEPT SOCIAL SVC,STATE,BI,1561,19.52197024,-155.2955573,NA,NA,NA,NA,NA
81.1,Kilauea For Res,UH BOTANY DEPT,STATE,BI,1585,19.50224841,-155.3247237,NA,NA,NA,NA,NA
82,Puu Oo,SHIPMAN WH,STATE,BI,1921,19.72362526,-155.385559,NA,NA,NA,NA,NA
82.1,Saddle House,SHIPMAN WH,STATE,BI,1732,19.67834962,-155.381392,NA,NA,NA,NA,NA
82.2,Kole,DIV FISH & GAME,STATE,BI,262,19.74945733,-155.4191691,NA,NA,NA,NA,NA
82.3,Kemole Gulch,Kemole Gulch,SCAN,BI,1266,19.91,-155.59,NA,NA,NA,2103,NA
83,QuarryRainGageatSaddleRd,USGS,USGS,BI,1286.256,19.68586111,-155.2942222,NA,SDQH1,DDF6B6E4,NA,NA
83.1,Wailuku River,USGS,USGS,BI,1104,19.71862652,-155.266117,NA,NA,NA,NA,NA
84,Saddle Rd,BWS,STATE,BI,713,19.69362812,-155.2005624,NA,NA,NA,NA,NA
85,Hilo A&F,STATE DIV FTRY,STATE,BI,11,19.70529511,-155.0722308,NA,NA,NA,NA,NA
85.2,Waiakea Uka,NWS,HydroNet-UaNet,BI,303.8856,19.6585999,-155.1277,USC00519084,WKAH1,NA,NA,NA
85.3,Ha's Farm 85.3,COOP_Monthly,STATE,BI,181,19.667,-155.1,NA,NA,NA,NA,NA
86.1,Hilo,CHAVES C,STATE,BI,12,19.72529379,-155.087231,NA,NA,NA,NA,NA
86.2,Kauman (1960),PUNA SUGAR,STATE,BI,598,19.6822399,-155.1805626,NA,NA,NA,NA,NA
86.4,Hilo Coan,REV TITUS COAN,STATE,BI,15,19.722849,-155.0805644,NA,NA,NA,NA,NA
86.6,Hilo Countryclub,WILLS REX II,STATE,BI,463,19.67807358,-155.1586186,NA,NA,NA,NA,NA
87,HILO INTERNATIONAL AIRPORT 87,NWS,HydroNet-UaNet,BI,11.6,19.7191,-155.053,USW00021504,PHTO,NA,NA,NA
87.1,Waiakea Mill,WAIAKEA MILL CO,STATE,BI,15,19.71196134,-155.0755642,NA,NA,NA,NA,NA
87.2,Hilo Breakwater,US ENGINEERS,STATE,BI,5,19.72696086,-155.0422313,NA,NA,NA,NA,NA
87.3,HILO 1.3 NNE,HILO 1.3 NNE,CoCoRaHS,BI,5,19.7136,-155.0791,US1HIHI0021,NA,NA,NA,NA
87.4,HILO ENE,HILO ENE,CoCoRaHS,BI,24,19.6996,-155.0728,US1HIHI0016,NA,NA,NA,NA
87.5,HILO 5 S,HILO 5 S,USCRN,BI,189,19.645,-155.0827,USW00021515,NA,NA,NA,NA
87.6,HILO 0.7 E,HILO 0.7 E,CoCoRaHS,BI,42,19.697,-155.076,US1HIHI0024,NA,NA,NA,NA
87.8,HILO 0.4 SW,HILO 0.4 SW,CoCoRaHS,BI,107,19.692,-155.0925,US1HIHI0039,NA,NA,NA,NA
87.9,IPIF,Hilo Forest Service,HIPPNET,BI,111,19.69748,-155.0954,NA,NA,NA,NA,NA
88,Waiakea,PU SUGAR,STATE,BI,585,19.63863119,-155.1691731,NA,NA,NA,NA,NA
88.1,KAUMANA 88.1,HILO SUGAR,COOP,BI,343,19.68362898,-155.1405634,USC00513510,NA,NA,NA,NA
88.2,WAIAKEA SCD 88.2,SHINICHI KANESHIRO,COOP,BI,287,19.65529741,-155.1205634,USC00519025,NA,NA,NA,NA
88.3,Piihonua-H Mill,HAWAIIAN MILL,STATE,BI,305,19.71362744,-155.1305639,NA,NA,NA,NA,NA
88.31,HILO 3.0,COOP,COOP,BI,242,19.71414,-155.12934,US1HIHI0053,NA,NA,NA,NA
88.4,PIIHONUA CAMP 5 88.4,HILO SUGAR,COOP,BI,381,19.72112693,-155.1547303,USC00518052,NA,NA,NA,NA
88.5,Kaumana 2,HILO COUNTRY CLU,STATE,BI,524,19.67196275,-155.1638962,NA,NA,NA,NA,NA
88.6,Waiakea Camp 8,WAIAKEA MILL,STATE,BI,320,19.64863111,-155.1205634,NA,NA,NA,NA,NA
88.8,Waiakea Exp Farm,UNIV HAWAII,STATE,BI,183,19.644743,-155.0805636,NA,WEXH1,CD07410A,NA,NA
88.9,Thrumms,NORTHWOOD RP,STATE,BI,0,19.704739,-155.1350082,NA,NA,NA,NA,NA
89,Piihonua,MAU KEA SUGAR,STATE,BI,527,19.73029311,-155.16723,NA,NA,NA,NA,NA
89.1,Waiakea Camp 6,WAIAKEA MILL,STATE,BI,188,19.66529712,-155.1019525,NA,NA,NA,NA,NA
89.11,Piihonua,NWS,HydroNet-UaNet,BI,296.8752,19.7098007,-155.1395,USC00518053,PIIH1,NA,NA,NA
89.12,HILO 2.0 WNW,HILO 2.0 WNW,CoCoRaHS,BI,152,19.7106,-155.1145,US1HIHI0022,NA,NA,NA,NA
89.13,"KAIWIKI HOMESTEAD 89.11, HI US",COOP,COOP,BI,379.67,19.7509,-155.1362,USC00512802,NA,NA,NA,NA
89.14,HILO 1.8 WNW,COOP,COOP,BI,151.5,19.70799,-155.11258,US1HIHI0066,NA,NA,NA,NA
89.15,HONOLII STREAM NEAR PAPAIKOU NEAR HILO 3N ,USGS,USGS,BI,522.23157,19.7667,-155.1544,NA,NLIH1,D114953C,NA,NA
89.2,AMAUULU 89.2,HILO SUGAR,COOP,BI,390,19.73529295,-155.1455638,USC00510150,NA,NA,NA,NA
89.4,Kaiwiki,HILO SUGAR,STATE,BI,335,19.75029229,-155.1288977,NA,NA,NA,NA,NA
89.5,Amauulu Camp 4,HILO SUGAR,STATE,BI,274,19.73362642,-155.1300086,NA,NA,NA,NA,NA
89.6,Dairy,HILO SUGAR,STATE,BI,457,19.74140375,-155.1536193,NA,NA,NA,NA,NA
89.7,Lower Piihonua,MO ISHERWOOD,STATE,BI,248,19.71196086,-155.1305639,NA,NA,NA,NA,NA
89.9,Piihonua 2,HILO SUGAR,STATE,BI,274,19.71362742,-155.1338972,NA,NA,NA,NA,NA
90,Wainaku Makai,MAUNA KEA SUGAR,STATE,BI,30,19.738963,-155.09093,NA,NA,NA,NA,NA
90.1,Hawaii Sub Off,HSPA,STATE,BI,67,19.72696031,-155.0955643,NA,NA,NA,NA,NA
90.2,HILO 1.8 NNW,HILO 1.8 NNW,CoCoRaHS,BI,46,19.7217,-155.0948,US1HIHI0026,NA,NA,NA,NA
91,MOUNTAIN VIEW 91,PU SUGAR,COOP,BI,463,19.5487,-155.1101,USC00516552,NA,NA,NA,NA
91.1,Keaau,SHIPMAN WH,STATE,BI,5,19.64335566,-154.9838981,NA,NA,NA,NA,NA
91.11,PUNA MACADAMIA O 91.11,COOP,COOP,BI,244,19.61861,-155.08667,USC00518315,NA,NA,NA,NA
91.12,HAWAIIAN BEACHES 91.12,COOP,COOP,BI,88,19.533,-154.917,USC00511300,NA,NA,NA,NA
91.13,KEAAU BEACH 91.13,COOP,COOP,BI,5,19.641,-154.981,USC00513868,NA,NA,NA,NA
91.14,KURTISTOWN 91.14,COOP,COOP,BI,223,19.59,-155.083,USC00515102,NA,NA,NA,NA
91.15,Mountain View,Mountain View,HydroNet-UaNet,BI,346.5576,19.5674992,-155.0841,NA,MTVH1,NA,NA,NA
91.16,"MOUNTAIN VIEW 4.5 NNE, HI US",CoCoRaHs,CoCoRaHs,BI,482.19,19.5808,-155.1216,US1HIHI0060,NA,NA,NA,NA
91.17,"PAHOA BEACON 91.9, HI US",COOP,COOP,BI,148.5,19.5407,-154.9728,USC00517460,NA,NA,NA,NA
91.2,Olaa (1650),RUSSELL DR N,STATE,BI,503,19.53530469,-155.1205603,NA,NA,NA,NA,NA
91.3,Olaa Kurtistown,DRANGA TA,STATE,BI,197,19.59363516,-155.0672294,NA,NA,NA,NA,NA
91.4,Kurtistown,PUNA SUGAR,STATE,BI,280,19.57530287,-155.0672288,NA,NA,NA,NA,NA
91.5,ORCHID LD ESTATE 91.5,HAWAII CTY DWS,COOP,BI,137,19.55530513,-154.9905619,USC00517185,NA,NA,NA,NA
91.6,KURTISTOWN 6.1 SSE,KURTISTOWN 6.1 SSE,CoCoRaHS,BI,295,19.5145,-155.0206,US1HIHI0037,NA,NA,NA,NA
91.7,MOUNTAIN VIEW 5.5 SE,MOUNTAIN VIEW 5.5 SE,CoCoRaHS,BI,547,19.4708,-155.0842,US1HIHI0036,NA,NA,NA,NA
91.8,S GLEWNWOOD 91.8,COOP,COOP,BI,694,19.488,-155.149,USC00518638,NA,NA,NA,NA
91.9,Pahoa Beacon,NWS,HydroNet-UaNet,BI,187.1472,19.5149994,-154.9644,NA,PHAH1,NA,NA,NA
92,KEAAU 92,PU SUGAR,COOP,BI,87,19.62918887,-155.0333418,USC00513872,NA,NA,NA,NA
92.1,HUEHUE 92.1,HUEHUE RANCH,COOP,BI,598,19.75196134,-155.9722153,USC00512156,NA,NA,NA,NA
92.2,Keaau Orchard,KEAAU ORCHARD,STATE,BI,27,19.6419662,-155.0105644,NA,NA,NA,NA,NA
92.3,Halepiula 3,PUUWAAWAA RANCH,STATE,BI,713,19.76890493,-155.8972185,NA,NA,NA,NA,NA
92.4,Kukulu Kukui,SHIPMAN WH,STATE,BI,84,19.63779937,-155.0391751,NA,NA,NA,NA,NA
92.5,KiholoRainGage,USGS,USGS,BI,283.96692,19.82580556,-155.8925833,NA,KIRH1,DD60236E,NA,NA
92.6,Keeau,PUNA PAPAYA,STATE,BI,24,19.67501957,-155.022509,NA,NA,NA,NA,NA
92.7,MAHAIULA 92.7,COOP,COOP,BI,293,19.757,-155.976,USC00515670,NA,NA,NA,NA
92.8,KAUPULEHU,C_Litton_ForestService,ForestService,BI,403.86,19.846005,-155.856019,NA,NA,NA,NA,NA
93,Kapolo,PU SUGAR,STATE,BI,34,19.50697752,-154.8405598,NA,NA,NA,NA,NA
93.1,Puu Anahulu,PUUWAAWAA RANCH,STATE,BI,655,19.81528953,-155.843608,NA,NA,NA,NA,NA
93.11,KAPOHO BEACH 93.11,ARRUDA GENVIEVE,COOP,BI,4,19.48892483,-154.8200037,USC00513368,NA,NA,NA,NA
93.12,PUUANAHULU,RAWS,RAWS,BI,830.58,19.83277778,-155.7697222,NA,PULH1,48703040,NA,NA
93.13,Mamalahoa,Hilo Forest Service,HIPPNET,BI,636,19.80256,-155.85062,NA,NA,NA,NA,NA
93.2,Cape Kumukahi,USCG,STATE,BI,20,19.51364496,-154.8188935,NA,NA,NA,NA,NA
93.3,Panika,PUUWAAWAA RANCH,STATE,BI,634,19.82528884,-155.8472188,NA,NA,NA,NA,NA
93.4,Eden Low,PUUWAAWAA RANCH,STATE,BI,655,19.81862265,-155.8455523,NA,NA,NA,NA,NA
93.5,KAPOHO LANDING 93.5,BWS,COOP,BI,88,19.50364409,-154.8605597,USC00513369,NA,NA,NA,NA
93.6,KAHUWAI,KAHUWAI,STATE,BI,200,19.531,-154.879,NA,NA,NA,NA,NA
93.61,"PAHOA 4.7 NE, HI US",CoCoRaHs,CoCoRaHs,BI,53.95,19.5473,-154.8988,US1HIHI0065,NA,NA,NA,NA
93.62,PAHOA 5.7 NE,COOP,COOP,BI,27.4,19.5565,-154.8865,US1HIHI0070,NA,NA,NA,NA
93.63,HAWAIIAN PARADISE PARK 2.4 E,COOP,COOP,BI,10.1,19.594568,-154.936038,US1HIHI0072,NA,NA,NA,NA
93.64,KEAAU 5.5,COOP,COOP,BI,18,19.613803,-154.955684,US1HIHI0068,NA,NA,NA,NA
93.7,Kukui Akau,PUUWAAWAA RANCH,STATE,BI,402,19.83084408,-155.8527742,NA,NA,NA,NA,NA
93.8,KONA VILLAGE 93.8,KO VILLAGE RES,COOP,BI,12,19.8314012,-155.9858256,USC00514765,NA,NA,NA,NA
93.9,KiholoBay,Hilo Forest Service,HIPPNET,BI,2,19.85497,-155.9247,NA,NA,NA,NA,NA
94,KAUPULEHU LAVA FLOW,RAWS,RAWS,BI,372.1608,19.80333333,-155.9180556,NA,KPLH1,4870E628,NA,NA
94.1,PUU WAAWAA 94.1,PUUWAAWAA RANCH,COOP,BI,709,19.77279268,-155.8422198,USC00518555,NA,NA,NA,NA
94.2,Kaumana (500),MATSUNAGA J,STATE,BI,152,19.70057274,-155.1122306,NA,NA,NA,NA,NA
94.3,Mamane Paddock,PUUWAAWAA RANCH,STATE,BI,1052,19.77029258,-155.8272201,NA,NA,NA,NA,NA
94.5,PUU WAAWAA,RAWS,RAWS,BI,708.9648,19.795,-155.8452778,USR0000HPUW,PWWH1,487046D0,NA,NA
95,Puuhinei 2 Gf,PARKER RANCH,STATE,BI,780,19.88028279,-155.7205545,NA,NA,NA,NA,NA
95.1,Puako,GOTO ICHIRO,STATE,BI,2,19.96694648,-155.8508282,NA,NA,NA,NA,NA
95.11,WAIKOLOA VILLAGE 2.7 ENE,WAIKOLOA VILLAGE 2.7 ENE,CoCoRaHS,BI,265,19.9465,-155.7883,US1HIHI0047,NA,NA,NA,NA
95.2,Puuhinei Padd,PARKER RANCH,STATE,BI,457,19.89694899,-155.7638863,NA,NA,NA,NA,NA
95.3,Puako (40),PARKER RANCH,STATE,BI,12,19.95528032,-155.8322176,NA,NA,NA,NA,NA
95.6,WAIKOLOA,RAWS,RAWS,BI,297.7896,19.92416667,-155.7936111,NA,WKVH1,4870C0C4,NA,NA
95.7,Waikoloa Mauka,STUDEBAKER CH,STATE,BI,186,19.91639347,-155.8208292,NA,NA,NA,NA,NA
95.8,WAIKOLOA 95.8,BOISE CASCADE,COOP,BI,268,19.93389178,-155.7877744,USC00519142,NA,NA,NA,NA
95.9,WAIKOLOA BEACH RT 95.9,COOP,COOP,BI,24,19.91278,-155.87778,USC00519144,NA,NA,NA,NA
96,Puuhinei 1,PARKER RANCH,STATE,BI,610,19.89028236,-155.7372205,NA,NA,NA,NA,NA
97,Keamuku,PARKER RANCH,STATE,BI,951,19.84028568,-155.717222,NA,NA,NA,NA,NA
98,Maunakea Beach,MAUNAKEA BEACH H,STATE,BI,11,20.00722122,-155.8249955,NA,NA,NA,NA,NA
98.1,PUUKOHOLA HEIAU 98.1,ROSE FUJIMORI,COOP,BI,43,20.02666416,-155.81944,USC00518422,NA,NA,NA,NA
98.2,PUHO CS,PUHO CS,RAWS,BI,29.5656,19.42194444,-155.9075,NA,PERH1,32D6803A,NA,NA
98.91,HOLUALOA 0.95,COOP,COOP,BI,527.3,19.6225861,-155.927558,US1HIHI0067,NA,NA,NA,NA
99,PTA WEST,RAWS,RAWS,BI,1307.592,19.77166667,-155.7022222,USR0000HPTW,PKWH1,32667176,NA,NA
100,Waikii,PARKER RANCH,STATE,BI,1417,19.82,-155.6508,NA,NA,NA,NA,NA
100.1,Waikii 4675,USDA FRUIT FLY L,STATE,BI,1425,19.85861684,-155.6505568,NA,NA,NA,NA,NA
100.2,Waikii (4800),CHARLES CAMPBELL,STATE,BI,1466,19.85639474,-155.6461125,NA,NA,NA,NA,NA
100.3,Waikii,Waikii,HydroNet-UaNet,BI,1417.0152,19.8614006,-155.6506,NA,WHIH1,NA,NA,NA
101,Pa Aalii,PARKER RANCH,STATE,BI,1110,19.89778082,-155.6619445,NA,NA,NA,NA,NA
101.1,PTA KEAMUKU,RAWS,RAWS,BI,1025.9568,19.90222222,-155.6786111,NA,PKMH1,328FB7BE,NA,NA
102,Puu Anuanu,PARKER RANCH,STATE,BI,1799,19.8536172,-155.6155573,NA,NA,NA,NA,NA
102.1,Puu Laau,STATE DIV FTRY,STATE,BI,2268,19.83195212,-155.5922244,NA,NA,NA,NA,NA
102.2,Kemole House,PARKER RANCH,STATE,BI,1652,19.89528145,-155.5572233,NA,NA,NA,NA,NA
102.3,Puu Anuanu Padd,PARKER RANCH,STATE,BI,2287,19.83028568,-155.5805576,NA,NA,NA,NA,NA
102.7,Waikii (7400),CHARLES CAMPBELL,STATE,BI,2281,19.82111958,-155.5844467,NA,NA,NA,NA,NA
102.8,AUHMOA,RAWS,RAWS,BI,2001.9264,19.83638889,-155.6130556,NA,AHMH1,4870D3B2,NA,NA
103,MAKAHALAU 103,PARKER RANCH,COOP,BI,1165,19.9736104,-155.5488883,USC00515761,NA,NA,NA,NA
103.1,Mana,PARKER RANCH,STATE,BI,1073,19.99694234,-155.5574989,NA,NA,NA,NA,NA
103.2,Pakalani,UHAES,STATE,BI,924,19.99610827,-155.6130537,NA,NA,NA,NA,NA
103.3,Mana House,Mana House,SCAN,BI,1288,19.96,-155.54,NA,NA,NA,2097,NA
104,Kemole 2,PARKER RANCH,STATE,BI,1500,19.91028051,-155.5605563,NA,NA,NA,NA,NA
104.1,Silversword,Silversword,SCAN,BI,2835,19.77,-155.42,NA,NA,NA,2101,NA
105,Kemole 2-P Ranch,PARKER RANCH,STATE,BI,1427,19.93194593,-155.5322229,NA,NA,NA,NA,NA
106,Old Dairy,PARKER RANCH,STATE,BI,1268,19.96694407,-155.5288888,NA,NA,NA,NA,NA
107,POHAKULOA 107,STATE DIV FTRY,COOP,BI,1985,19.7495,-155.5268,USC00518063,NA,NA,NA,NA
107.2,Pohakuloa (5700),PARKER RANCH,STATE,BI,1738,19.78028858,-155.5972248,NA,NA,NA,NA,NA
107.3,BRADSHAW ARMY AIR FIELD,BRADSHAW ARMY AIR FIELD,NWS,BI,1887,19.76,-155.55361,USW00021508,NA,NA,NA,NA
107.4,PTA EAST,RAWS,RAWS,BI,1959.864,19.68277778,-155.5452778,USR0000HPTA,PTAH1,3266D18E,NA,NA
108,PTA Portable,RAWS,RAWS,BI,1756,19.746,-155.627,USR0000HPTP,NA,NA,NA,NA
109,PTA RANGE 17,RAWS,RAWS,BI,1734.312,19.74583333,-155.6261111,NA,NA,3279630C,NA,NA
110,Puunoho 1,PARKER RANCH,STATE,BI,1284,19.97361043,-155.506389,NA,NA,NA,NA,NA
110.1,Puunoho Paddock,PARKER RANCH,STATE,BI,1280,19.98027671,-155.5138888,NA,NA,NA,NA,NA
110.2,Nienie Yates,HAWN HOMELANDS,STATE,BI,1172,19.98860959,-155.5188886,NA,NA,NA,NA,NA
111,HALEPOHAKU 111,STATE DIV FTRY,COOP,BI,2811,19.76029046,-155.4555569,USC00511065,NA,NA,NA,NA
111.2,Mauna Kea Obs,UH-HILO OBSERVATORY,STATE,BI,4156,19.823305,-155.469888,NA,NA,NA,NA,NA
112,Hanaipoe,PARKER RANCH,STATE,BI,1561,19.94361185,-155.4588902,NA,NA,NA,NA,NA
113,Puu Mali,KUKAIAU RANCH,COOP,BI,2112,19.90722465,-155.4372243,USC00518515,NA,NA,NA,NA
113.1,Puuhala,KUKAIAU RANCH,STATE,BI,1982,19.9136132,-155.4305575,NA,NA,NA,NA,NA
113.2,PUU MALI,RAWS,RAWS,BI,2165,19.92666,-155.44,NA,PMLH1,3181742E,NA,NA
114,Hope A,KUKAIAU RANCH,STATE,BI,1213,19.97361002,-155.4138903,NA,NA,NA,NA,NA
114.1,Dairy Field,KUKAIAU RANCH,STATE,BI,963,20.00305275,-155.4300006,NA,NA,NA,NA,NA
115,Stone Corral,KUKAIAU RANCH,STATE,BI,1598,19.94361165,-155.4155573,NA,NA,NA,NA,NA
116,Papa-K Ranch,KUKAIAU RANCH,STATE,BI,1448,19.95027798,-155.3905576,NA,NA,NA,NA,NA
116.1,Garden,KUKAIAU RANCH,STATE,BI,1512,19.94222299,-155.3733358,NA,NA,NA,NA,NA
117,Halepiula,KUKAIAU RANCH,STATE,BI,1759,19.92861253,-155.3905577,NA,NA,NA,NA,NA
118,Umikoa,KUKAIAU RANCH,STATE,BI,1043,19.98027624,-155.3788912,NA,NA,NA,NA,NA
118.1,Field 127,HAMAKUA MILL,STATE,BI,665,19.99860831,-155.3505585,NA,NA,NA,NA,NA
118.3,7A,HAMAKUA MILL,STATE,BI,683,20.00388571,-155.3705579,NA,NA,NA,NA,NA
118.4,Field 128,HAMAKUA MILL,STATE,BI,695,19.99860832,-155.3552807,NA,NA,NA,NA,NA
120,Puu Kihe,KUKAIAU RANCH,STATE,BI,2363,19.89528116,-155.3922245,NA,NA,NA,NA,NA
120.1,Puu Kea,KUKAIAU RANCH,STATE,BI,2604,19.89194785,-155.4072245,NA,NA,NA,NA,NA
121,Iolehaehae Tanks,KUKAIAU RANCH,STATE,BI,1921,19.90694754,-155.361114,NA,NA,NA,NA,NA
121.1,Kukaiau 7850,UNKNOWN,STATE,BI,2393,19.89694815,-155.3638918,NA,NA,NA,NA,NA
122,Laaumaia,PARKER RANCH,STATE,BI,2006,19.76695663,-155.3569487,NA,NA,NA,NA,NA
123,Kaala,KUKAIAU RANCH,STATE,BI,1665,19.92194665,-155.3538919,NA,NA,NA,NA,NA
123.1,Keanakolu-Parker,PARKER S JR,STATE,BI,1677,19.91361396,-155.3472253,NA,NA,NA,NA,NA
123.2,Kukaiau (5000),UNKNOWN,STATE,BI,1524,19.93027953,-155.3472253,NA,NA,NA,NA,NA
124,Keanakolu,DIV OF FTRY,STATE,BI,1610,19.91694715,-155.3388922,NA,NA,NA,NA,NA
124.1,Keanakolu,PARKER RANCH,STATE,BI,1610,19.91528063,-155.3355589,NA,NA,NA,NA,NA
124.2,KEANAKOLU CAMP 124.2,STATE DIV FTRY,STATE,BI,1609,19.9185,-155.3399,NA,NA,NA,NA,NA
125,Hopuwai,PARKER RANCH,STATE,BI,1959,19.84695227,-155.3372257,NA,NA,NA,NA,NA
125.1,Pua Akala,SHIPMAN WH,STATE,BI,1921,19.78695606,-155.3305599,NA,NA,NA,NA,NA
125.12,Pua Akala,SCAN,SCAN,BI,1949,19.8,-155.3333333,NA,NA,NA,2098,NA
126,Maulua/Kaulua,KUKAIAU RANCH,STATE,BI,1567,19.88861614,-155.3072261,NA,NA,NA,NA,NA
126.1,Maulua 6200,KUKAIAU RANCH,STATE,BI,1884,19.87361694,-155.3372256,NA,NA,NA,NA,NA
127,Puu Loa,KUKAIAU RANCH,STATE,BI,777,19.98360937,-155.330559,NA,NA,NA,NA,NA
127.2,Kukaiau (3400),UNKNOWN,STATE,BI,1037,19.98027628,-155.330559,NA,NA,NA,NA,NA
127.3,Keanakolu Trail,USDA FRUIT FLY L,STATE,BI,1159,19.93694597,-155.2997263,NA,NA,NA,NA,NA
127.4,Coffee Pond,KUKAIAU RANCH,STATE,BI,854,19.98749801,-155.3566695,NA,NA,NA,NA,NA
127.5,Laupahoehoe,Hilo Forest Service,HIPPNET,BI,1145,19.93217,-155.29129,NA,NA,NA,NA,NA
128,Nauhi Gulch,STATE DIV FTRY,STATE,BI,1573,19.85528545,-155.2972263,NA,NA,NA,NA,NA
128.1,Hakalau,Hilo Forest Service,HIPPNET,BI,1665,19.83873,-155.30797,NA,NA,NA,NA,NA
129,HAKALAU,RAWS,RAWS,BI,1950.72,19.82111111,-155.3305556,USR0000HHAK,HKUH1,8374D370,NA,NA
130,Ookala Mauka,LAUPAHOEHOE SUG,STATE,BI,543,19.98360902,-155.2922266,NA,NA,NA,NA,NA
130.1,Field 6,LAUPAHOEHOE SUG,STATE,BI,274,19.99527425,-155.2722269,NA,NA,NA,NA,NA
130.2,Field 439,DAVIS HAMAKUA SUGAR,STATE,BI,274,20.01693963,-155.3222258,NA,NA,NA,NA,NA
131,Island Dairy,SCAN,SCAN,BI,354,20,-155.2833333,NA,NA,NA,2100,NA
131.1,OOKALA 2.8 S,OOKALA 2.8 S,CoCoRaHS,BI,553,19.9777,-155.2831,US1HIHI0004,NA,NA,NA,NA
132,Kihalani,LAUPAHOEHOE SUG,STATE,BI,457,19.95860965,-155.2422268,NA,NA,NA,NA,NA
132.1,Kaiaakea,LAUPAHOEHOE SUG,STATE,BI,136,19.95194249,-155.1905609,NA,NA,NA,NA,NA
132.2,Spencer,Hilo Forest Service,HIPPNET,BI,454,19.96358,-155.25014,NA,NA,NA,NA,NA
132.3,POHAKUPUKA,COOP,COOP,BI,82,19.9522,-155.185,USC00518067,NA,NA,NA,NA
132.4,KAPEHU MAUKA 132.4,COOP,COOP,BI,335,19.95,-155.217,USC00513329,NA,NA,NA,NA
132.5,KIHALANI 132.5,COOP,COOP,BI,302,19.97278,-155.23944,USC00514459,NA,NA,NA,NA
132.6,"Laupahoehoe, HI US F9660-FW9660",unknown,APRSWXNET,BI,334,19.9672,-155.2367,NA,F9660,NA,NA,NA
133,Papaaloa Office,LAUPAHOEHOE SUG,STATE,BI,80,19.97694031,-155.2205601,NA,NA,NA,NA,NA
133.1,LAUPAHOEHOE 133.1,BARNARD EW,COOP,BI,140,19.98027372,-155.2305601,USC00515427,NA,NA,NA,NA
133.2,LAUPAHOEHOE-RHEA,LAUPAHOEHOE-RHEA,STATE,BI,358,19.99343,-155.24723,NA,NA,NA,NA,NA
133.3,Laupahoehoe,NWS,HydroNet-UaNet,BI,499.872,19.9792,-155.2372,NA,LPHH1,B159741A,NA,NA
134,Makahanaloa 2,STATE DIV FTRY,STATE,BI,816,19.81695524,-155.1922288,NA,NA,NA,NA,NA
135,Hakalau Mauka,PEPEEKEO SUGAR,STATE,BI,351,19.88361655,-155.1655628,NA,NA,NA,NA,NA
136,HONOMU 136,STATE DIV FTRY,COOP,BI,534,19.83862075,-155.160563,USC00511958,NA,NA,NA,NA
137,Honohina,PEPEEKEO SUGAR,STATE,BI,91,19.92194566,-155.1538961,NA,NA,NA,NA,NA
137.1,Puuohua Macey,MACEY BB,STATE,BI,320,19.92361223,-155.1938946,NA,NA,NA,NA,NA
137.2,Honohina Middle,PEPEEKEO SUGAR,STATE,BI,84,19.93527757,-155.1638955,NA,NA,NA,NA,NA
137.3,Honohina Mauka,PEPEEKEO SUGAR,STATE,BI,354,19.90778068,-155.1750068,NA,NA,NA,NA,NA
137.4,WAILEA 137.4,WAILEA 137.4,COOP,BI,61,19.8875,-155.12528,USC00519432,NA,NA,NA,NA
138,Honomu Mauka Low,PEPEEKEO SUGAR,STATE,BI,335,19.84862022,-155.1408416,NA,NA,NA,NA,NA
138.1,Honomu Mauka Hi,PEPEEKEO SUGAR,STATE,BI,366,19.84695362,-155.1472302,NA,NA,NA,NA,NA
138.2,KAHUNA FALLS 138.2,COOP,COOP,BI,424,19.86139,-155.16361,USC00512595,NA,NA,NA,NA
138.3,HONOMU 2.8 SW,HONOMU 2.8 SW,CoCoRaHS,BI,385,19.8494,-155.15,US1HIHI0014,NA,NA,NA,NA
140,Pepeekeo A&F,STATE DIV FTRY,STATE,BI,473,19.8302882,-155.1488967,NA,NA,NA,NA,NA
140.1,PAPAIKOU MAUKA NO 2 140,MAU KEA SUGAR,COOP,BI,427,19.78695738,-155.1388973,USC00517724,NA,NA,NA,NA
140.5,KAUKU 140.5,COOP,COOP,BI,457,19.835,-155.149,USC00513473,NA,NA,NA,NA
140.6,Papaikou Well,NWS,HydroNet-UaNet,BI,345.6432,19.7884998,-155.1313,NA,PPWH1,NA,NA,NA
141,Pepeekeo Mauka,PEPEEKEO SUGAR,STATE,BI,265,19.84195432,-155.1222314,NA,NA,NA,NA,NA
142,HAKALAU 142,PEPEEKEO SUGAR,COOP,BI,53,19.89861522,-155.1272305,USC00510905,NA,NA,NA,NA
143,Honomu Makai,PEPEEKEO SUG,STATE,BI,107,19.86389691,-155.1144537,NA,NA,NA,NA,NA
144,Pepeekeo Makai,PEPEEKEO SUGAR,STATE,BI,30,19.84195477,-155.0855658,NA,NA,NA,NA,NA
144.1,PAPAIKOU 144.1,MAU KEA SUGAR,COOP,BI,61,19.78362447,-155.0922318,USC00517711,NA,NA,NA,NA
144.11,PEPEEKEO 0.2 SSE,PEPEEKEO 0.2 SSE,CoCoRaHS,BI,178,19.8313,-155.1077,US1HIHI0002,NA,NA,NA,NA
144.12,PAPAIKOU 1.1 N,PAPAIKOU 1.1 N,CoCoRaHS,BI,108,19.8095,-155.0988,US1HIHI0011,NA,NA,NA,NA
144.13,PEPEEKEO 1.1 N,PEPEEKEO 1.1 N,CoCoRaHS,BI,179,19.8499,-155.1105,US1HIHI0031,NA,NA,NA,NA
144.2,Honomu (300),HONOMU SUGAR,STATE,BI,91,19.86361918,-155.1138982,NA,NA,NA,NA,NA
144.3,Honomu (950),HONOMU SUGAR,STATE,BI,290,19.8636189,-155.1330641,NA,NA,NA,NA,NA
144.4,Papaikou,ROGARS WH,STATE,BI,107,19.78029123,-155.0972317,NA,NA,NA,NA,NA
144.5,Honomu Seaside,PEPEEKEO SUGAR,STATE,BI,40,19.86306393,-155.0977877,NA,NA,NA,NA,NA
144.6,Andrade,PEPEEKEO SUGAR,STATE,BI,198,19.83695486,-155.1088986,NA,NA,NA,NA,NA
144.7,Onomea,ONOMEA SUGAR,STATE,BI,140,19.81528962,-155.1005653,NA,NA,NA,NA,NA
144.8,PAPAIKOU 0.4 SSE,PAPAIKOU 0.4 SSE,CoCoRaHS,BI,66,19.7894,-155.0935,US1HIHI0020,NA,NA,NA,NA
144.9,PAPAIKOU 0.3 S,PAPAIKOU 0.3 S,CoCoRaHS,BI,76,19.7892,-155.0953,US1HIHI0041,NA,NA,NA,NA
145,Wainaku Camp 2,MAUNA KEA SUGAR,STATE,BI,152,19.74195947,-155.1072312,NA,NA,NA,NA,NA
147,Beach,KAHUA RANCH,STATE,BI,3,20.07416213,-155.8588817,NA,NA,NA,NA,NA
147.1,MIDDLE PEN 147.1,KAHUA RANCH,COOP,BI,421,20.10027112,-155.8322151,USC00516270,NA,NA,NA,NA
147.2,KOHALA RANCH,KOHALA RANCH,RAWS,BI,328.8792,20.08305556,-155.8325,NA,KHRH1,4870B654,NA,NA
148,Kawaihae,KAHUA RANCH,STATE,BI,15,20.04194112,-155.8338838,NA,NA,NA,NA,NA
148.1,Puu Hanai,KAHUA RANCH,STATE,BI,393,20.0580508,-155.8072174,NA,NA,NA,NA,NA
148.3,KAWAIHAE NEAR WAIMEA-KOHALA 10W,NWS,STATE,BI,3.61,20.0333,-155.825,NA,KWEH1,B15054AA,NA,NA
148.4,PK_1,USGS,USGS,BI,365.1,20.02882906,-155.7759657,NA,NA,NA,NA,NA
148.5,PK_2,USGS,USGS,BI,744.7,20.05110272,-155.7654992,NA,NA,NA,NA,NA
148.6,PK_3,USGS,USGS,BI,1024.64,20.06218063,-155.7511627,NA,NA,NA,NA,NA
148.7,PK_4,USGS,USGS,BI,271.11,20.02818464,-155.7875054,NA,NA,NA,NA,NA
159,Mahukona,TERMI AGENT MAHU,STATE,BI,3,20.18359897,-155.9005432,NA,NA,NA,NA,NA
159.1,Honoipu,KAHUA RANCH,STATE,BI,79,20.24359253,-155.8805429,NA,NA,NA,NA,NA
159.2,UPOLU POINT USCG 159.2,USCG,COOP,BI,12,20.25025779,-155.8869314,USC00518830,NA,NA,NA,NA
159.4,Pr Pasture #32,KOHALA SUGAR,STATE,BI,122,20.20970749,-155.8866542,NA,NA,NA,NA,NA
160,Station 3,KOHALA SUGAR,STATE,BI,61,20.25525769,-155.8722096,NA,NA,NA,NA,NA
160.1,Upolu Point Ap,HAWN AIRLINES,STATE,BI,27,20.26525609,-155.8572096,NA,NA,NA,NA,NA
160.2,Station 28,KOHALA SUGAR,STATE,BI,131,20.24192648,-155.87221,NA,NA,NA,NA,NA
160.3,Upolu Airport,NWS,HydroNet-UaNet,BI,34,20.265,-155.8582,NA,UPLH1,B15017A0,NA,NA
161,Puakea,PARKER RANCH,STATE,BI,174,20.23192759,-155.8705435,NA,NA,NA,NA,NA
162,Station 2,KOHALA SUGAR,STATE,BI,91,20.25359135,-155.8605433,NA,NA,NA,NA,NA
162.1,Kokoiki,KAHUA RANCH,STATE,BI,174,20.24025983,-155.8555438,NA,NA,NA,NA,NA
162.2,Station 25,KOHALA SUGAR,STATE,BI,191,20.23859325,-155.8438777,NA,NA,NA,NA,NA
163,Station 15,KOHALA SUGAR,STATE,BI,259,20.22526153,-155.8588774,NA,NA,NA,NA,NA
164,Station 9,KOHALA SUGAR,STATE,BI,424,20.21026252,-155.8372119,NA,NA,NA,NA,NA
164.1,Puakea 13 #33,KOHALA SUGAR,STATE,BI,354,20.20165266,-155.8547112,NA,NA,NA,NA,NA
164.2,Station 34,KOHALA SUGAR,STATE,BI,454,20.20859638,-155.8505446,NA,NA,NA,NA,NA
165,Station 4,KOHALA SUGAR,STATE,BI,91,20.2535914,-155.8405441,NA,NA,NA,NA,NA
166,Station 14,KOHALA SUGAR,STATE,BI,38,20.26192353,-155.8388773,NA,NA,NA,NA,NA
167,Puuokumau,KOHALA SUGAR,STATE,BI,549,20.19526362,-155.833879,NA,NA,NA,NA,NA
168,HAWI 168,KOHALA SUGAR,COOP,BI,183,20.23692665,-155.8272119,USC00511339,NA,NA,NA,NA
168.1,Station 26,KOHALA SUGAR,STATE,BI,198,20.23026042,-155.8138794,NA,NA,NA,NA,NA
170,Puuhue,PARKER RANCH,STATE,BI,576,20.17026583,-155.832213,NA,NA,NA,NA,NA
171,Station 5,KOHALA SUGAR,STATE,BI,130,20.2435927,-155.8238787,NA,NA,NA,NA,NA
172,Station 17,KOHALA SUGAR,STATE,BI,442,20.20692935,-155.8338788,NA,NA,NA,NA,NA
173,Station 16,KOHALA SUGAR,STATE,BI,137,20.23692653,-155.8155458,NA,NA,NA,NA,NA
174,Station 6,KOHALA SUGAR,STATE,BI,58,20.25192483,-155.8072126,NA,NA,NA,NA,NA
174.1,Kohala Parsonage,OSTROM REV A,STATE,BI,107,20.24692562,-155.8138791,NA,NA,NA,NA,NA
174.3,Kapua Gulch #31,KOHALA SUGAR,STATE,BI,53,20.25248038,-155.8119346,NA,NA,NA,NA,NA
175.1,KOHALA MISSION 175.1,BOND ESTATE,COOP,BI,163,20.2252605,-155.7922137,USC00514680,NA,NA,NA,NA
176,Kohala Maulili,KOHALA SUGAR,STATE,BI,293,20.20859492,-155.7855476,NA,NA,NA,NA,NA
176.1,Kehena Res,KOHALA SUGAR,STATE,BI,768,20.16359891,-155.800548,NA,NA,NA,NA,NA
176.2,Homestead Plant,HC AUSTIN,STATE,BI,412,20.20859568,-155.8272124,NA,NA,NA,NA,NA
176.3,Kahua Ranch HQ,KAHUA RANCH,HydroNet-UaNet,BI,987.552,20.1249008,-155.7884,NA,KASH1,15D293C2,NA,NA
177,Station 8,KOHALA SUGAR,STATE,BI,30,20.24025866,-155.7722141,NA,NA,NA,NA,NA
178,Headquarters,KAHUA RANCH,STATE,BI,988,20.12610167,-155.7888826,NA,NA,NA,NA,NA
178.1,Station 21,KOHALA SUGAR,STATE,BI,564,20.19192986,-155.8055471,NA,NA,NA,NA,NA
178.11,#4 WB-Kahua,KAHUA RANCH,STATE,BI,1166,20.12554592,-155.7774941,NA,NA,NA,NA,NA
178.12,PONOHOLO RCH 178.11,PONOHOLO RCH 178.11,COOP,BI,762,20.12554592,-155.7774941,USC00518101,NA,NA,NA,NA
178.2,Twin Reservoir,KOHALA DITCH,STATE,BI,573,20.18359693,-155.7872148,NA,NA,NA,NA,NA
178.3,Kalope,KAHUA RANCH,STATE,BI,1037,20.07527132,-155.7638841,NA,NA,NA,NA,NA
178.4,Halawa,PATTON MRS WC,STATE,BI,137,20.23025914,-155.7638813,NA,NA,NA,NA,NA
178.5,Puuhue Ranch,WOODS SP,STATE,BI,565,20.17193242,-155.8338796,NA,NA,NA,NA,NA
178.6,Waikanonoula,KAHUA RANCH,STATE,BI,1168,20.12526817,-155.7777719,NA,NA,NA,NA,NA
178.7,Kalahikiola,KAHUA RANCH,STATE,BI,841,20.14693375,-155.8038817,NA,NA,NA,NA,NA
178.8,Puu Aiea,KAHUA RANCH,STATE,BI,930,20.12193553,-155.7994379,NA,NA,NA,NA,NA
178.9,Puu Kaakihi,KAHUA RANCH,STATE,BI,768,20.13665693,-155.8122148,NA,NA,NA,NA,NA
179,Niulii,KOHALA SUGAR,STATE,BI,23,20.22192578,-155.7438821,NA,NA,NA,NA,NA
179.1,Kohala,KOHALA SUGAR,STATE,BI,95,20.23025973,-155.7788808,NA,NA,NA,NA,NA
179.3,POLOLU LOOKOUT 179.3,POLOLU LOOKOUT 179.3,COOP,BI,149,20.20694,-155.73778,USC00518086,NA,NA,NA,NA
180.1,Station 18,KOHALA SUGAR,STATE,BI,130,20.21526056,-155.7655482,NA,NA,NA,NA,NA
181,Makapala Nursery,STATE DIV FTRY,STATE,BI,494,20.18359648,-155.7622156,NA,NA,NA,NA,NA
181.1,Honokane,KOHALA DITCH,STATE,BI,244,20.14526612,-155.7305504,NA,NA,NA,NA,NA
181.2,Kehena,KOHALA DITCH,STATE,BI,1171,20.11860157,-155.7488837,NA,NA,NA,NA,NA
182,Station 12,KOHALA SUGAR,STATE,BI,305,20.19526187,-155.7505491,NA,NA,NA,NA,NA
182.1,Awini,KOHALA DITCH,STATE,BI,570,20.16859722,-155.7122172,NA,NA,NA,NA,NA
183,Station 19,KOHALA SUGAR,STATE,BI,287,20.19526181,-155.7472159,NA,NA,NA,NA,NA
183.1,Puu Ahia,KAHUA RANCH,STATE,BI,1329,20.09193666,-155.7455507,NA,NA,NA,NA,NA
183.2,East Honokane,KOHALA DITCH,STATE,BI,1293,20.10693559,-155.7105514,NA,NA,NA,NA,NA
183.3,Station 30,KOHALA SUGAR,STATE,BI,241,20.20359461,-155.7572154,NA,NA,NA,NA,NA
183.9,Keawewai Fort Fn,DOWALD,STATE,BI,1436,20.08749249,-155.7361066,NA,NA,NA,NA,NA
184.1,Kaukini,KOHALA DITCH,STATE,BI,622,20.15859804,-155.6922177,NA,NA,NA,NA,NA
184.2,Awini Ranch,AWINI RANCH,STATE,BI,335,20.18026269,-155.7138836,NA,NA,NA,NA,NA
185,Kawainui Upper,HAWN IRRIG,STATE,BI,1244,20.08360377,-155.6772192,NA,NA,NA,NA,NA
185.3,Honokane-P Ranch,PARKER RANCH,STATE,BI,229,20.13026775,-155.6305525,NA,NA,NA,NA,NA
185.4,Upp Hamakua Dit,USGS,USGS,BI,1226,20.08443705,-155.6749971,NA,NA,NA,NA,NA
185.5,WaimanuRaingagenearKamuela,USGS,USGS,BI,4.572,20.13443333,-155.6397194,NA,NA,NA,NA,NA
185.7,KawainuiRainGagenearKamuela,USGS,USGS,BI,1237.488,20.08533333,-155.6811667,NA,KWSH1,DDF6A592,NA,NA
189,Waimea Plain,SCAN,SCAN,BI,927,20.01666667,-155.6,NA,NA,NA,2099,NA
190,Alakahi Upper,HAWN IRRIG,STATE,BI,1177,20.070081,-155.669952,NA,NA,NA,NA,NA
190.11,Alakahi,DOWALD,STATE,BI,1088,20.06943785,-155.6697196,NA,NA,NA,NA,NA
190.4,Keanuiomano Str,USGS,USGS,BI,735,20.02749611,-155.6980529,NA,NA,NA,NA,NA
190.5,Waikoloa Res,DOWALD,STATE,BI,1009,20.03805076,-155.6755531,NA,NA,NA,NA,NA
190.7,Kohakohau 8,USGS,USGS,BI,780,20.02638493,-155.6869419,NA,NA,NA,NA,NA
190.8,Alakahi-P Ranch,PARKER RANCH,STATE,BI,1232,20.07332656,-155.6758305,NA,NA,NA,NA,NA
190.9,High Pressure,PARKER RANCH,STATE,BI,1296,20.08138167,-155.686108,NA,NA,NA,NA,NA
191,WAIMEA KOHALA AIRPORT,HAWN AIRLINES,NWS,BI,813,19.99694201,-155.6738868,USC00513078,NA,NA,NA,NA
191.1,LALAMILO FLD OF 191.1,DOWALD,COOP,BI,799,20.01083015,-155.6763867,USC00515260,NA,NA,NA,NA
191.3,Lalamilo Reserv,DOWALD,STATE,BI,807,20.01305219,-155.6713867,NA,NA,NA,NA,NA
191.4,Lalamilo Farm,UH EXP STA,STATE,BI,799,20.01916302,-155.6769421,NA,NA,NA,NA,NA
191.5,Lalamilo 24,DOWALD,STATE,BI,759,20.005275,-155.6916643,NA,NA,NA,NA,NA
191.6,Lalamilo 35,DOWALD,STATE,BI,726,20.01944098,-155.6958308,NA,NA,NA,NA,NA
192,Waimea,PARKER RANCH,STATE,BI,838,20.02527342,-155.6588867,NA,NA,NA,NA,NA
192.1,Puu Kapu A&F,STATE DIV FTRY,STATE,BI,875,20.03027288,-155.6405534,NA,NA,NA,NA,NA
192.2,Kamuela,PARKER RANCH,STATE,BI,814,20.02027391,-155.66722,NA,NA,NA,NA,NA
192.3,Range 1,PARKER RANCH,STATE,BI,701,19.99694241,-155.7138864,NA,NA,NA,NA,NA
192.4,Holoholuku 1,PARKER RANCH,STATE,BI,995,19.97360943,-155.635554,NA,NA,NA,NA,NA
192.6,Waimea Res,DOWALD,STATE,BI,905,20.04860537,-155.6222202,NA,NA,NA,NA,NA
192.7,Kamuela Upper,NWS,HydroNet-UaNet,BI,948.5376,20.0319996,-155.6667,USC00513080,KUUH1,817075F6,NA,NA
192.9,PUUKAPU HMSTD 192.9,COOP,COOP,BI,916,20.0375,-155.6347,USC00518386,NA,NA,NA,NA
193,KAWAINUI LOWER 193,HAWN IRRIG,COOP,BI,329,20.08360384,-155.6438866,USC00513770,NA,NA,NA,NA
194,Alakahi Lower,HAWN IRRIG,STATE,BI,256,20.07360432,-155.6388867,NA,NA,NA,NA,NA
194.1,Waikoloa Str,USGS,USGS,BI,1091,20.05193868,-155.6638867,NA,NA,NA,NA,NA
194.2,Kohala Mt Pipe L,PARKER RANCH,STATE,BI,1128,20.08027061,-155.6472199,NA,NA,NA,NA,NA
195,Koiawe Upper,HAWN IRRIG,STATE,BI,1021,20.05193846,-155.6438869,NA,NA,NA,NA,NA
195.1,Koiawe,DOWALD,STATE,BI,976,20.05721609,-155.634998,NA,NA,NA,NA,NA
196,KOIAWE LOWER 196,HAWN IRRIG,COOP,BI,220,20.07527098,-155.6305534,USC00514685,NA,NA,NA,NA
197,Waima Lower,HAWN IRRIG,STATE,BI,299,20.06527141,-155.6238869,NA,NA,NA,NA,NA
198,Muliwai,STATE DIV FTRY,STATE,BI,393,20.13193441,-155.6138861,NA,NA,NA,NA,NA
199,KUKUIHAELE HIC 199,HONOKAA SUGAR,COOP,BI,299,20.11526922,-155.5822202,USC00514928,NA,NA,NA,NA
200,Puu Alala,HAWN IRRIG,STATE,BI,878,20.05860505,-155.6188869,NA,NA,NA,NA,NA
201,Puu Kapu Res 3,HAWN IRRIG,STATE,BI,860,20.03693958,-155.5988871,NA,NA,NA,NA,NA
201.2,KAMUELA 1 201.2,HAES,COOP,BI,878,20.0392,-155.6085,USC00513072,NA,NA,NA,NA
201.3,Kamuela 1,NWS,HydroNet-UaNet,BI,877.824,20.0394993,-155.6084,NA,KMUH1,81706680,NA,NA
202,Lalakea,HONOKAA SUGAR,STATE,BI,596,20.088604,-155.5872204,NA,NA,NA,NA,NA
202.1,Field 114,HONOKAA SUGAR,STATE,BI,477,20.09693675,-155.5705539,NA,NA,NA,NA,NA
203,Second Gate,PARKER RANCH,STATE,BI,872,20.03860634,-155.5872205,NA,NA,NA,NA,NA
203.1,Kamoku,HAWN HOMELANDS,STATE,BI,854,20.04360641,-155.5588876,NA,NA,NA,NA,NA
203.2,Puu Pulehu Res,DOWALD,STATE,BI,841,20.03943944,-155.6005537,NA,NA,NA,NA,NA
203.3,Puukapu FC Dam,DOWALD,STATE,BI,866,20.03916168,-155.5999982,NA,NA,NA,NA,NA
204,Puu Kikoni,PARKER RANCH,STATE,BI,951,20.00527497,-155.5772207,NA,NA,NA,NA,NA
204.2,Puu Kapu,HAWN HOMELANDS,STATE,BI,947,19.99833055,-155.5997205,NA,NA,NA,NA,NA
204.3,PUUKAPU 204.3,COOP,COOP,BI,988,19.983,-155.6,USC00518384,NA,NA,NA,NA
205,Kukuihaele Vill,HONOKAA SUGAR,STATE,BI,229,20.11693552,-155.5672204,NA,NA,NA,NA,NA
206,Kukuihaele Landg,DAVIS HAMAKUA SUGAR,STATE,BI,91,20.12526779,-155.5588871,NA,NA,NA,NA,NA
206.1,KUKUIHAELE 206.1,COOP,COOP,BI,226,20.12167,-155.57417,USC00514927,NA,NA,NA,NA
207,Ahualoa Homestds,HAWN IRRIG,STATE,BI,777,20.04916167,-155.5105551,NA,NA,NA,NA,NA
208,Waikoloa Stream,HONOKAA SUGAR,STATE,BI,297,20.10249152,-155.5444431,NA,NA,NA,NA,NA
208.1,Honokaa HI US E6549-AH6AE ,unknown,APRSWXNET,BI,310.01,20.101,-155.531,NA,E6549,NA,NA,NA
209,Anuenue,HONOKAA SUGAR,STATE,BI,448,20.09193655,-155.5311101,NA,NA,NA,NA,NA
210,Kapulena,HONOKAA SUGAR,STATE,BI,280,20.09776916,-155.5188882,NA,NA,NA,NA,NA
211,Reservoir 13,HONOKAA SUGAR,STATE,BI,462,20.08304812,-155.5138886,NA,NA,NA,NA,NA
211.2,Fld 11 Honokaa,SCS-ARS,STATE,BI,561,20.07304887,-155.5038889,NA,NA,NA,NA,NA
212,First Gate,PARKER RANCH,STATE,BI,771,20.04860618,-155.5138884,NA,NA,NA,NA,NA
212.1,Nienie Lee,HHL,STATE,BI,837,20.0419399,-155.5105551,NA,NA,NA,NA,NA
213,Kawela,DAVIS HAMAKUA SUGAR,STATE,BI,119,20.105095,-155.49683,NA,NA,NA,NA,NA
213.1,New Stable,HONOKAA SUGAR,STATE,BI,343,20.09026947,-155.5000003,NA,NA,NA,NA,NA
214,HAINA 214,HONOKAA SUGAR,COOP,BI,140,20.09193527,-155.4738903,USC00510840,NA,NA,NA,NA
215,HONOKAA TOWN 215,HONOKAA SUGAR,COOP,BI,326,20.08026947,-155.4672231,USC00511856,NA,NA,NA,NA
215.1,Honokaa Mauka,HAWN TEL CO,STATE,BI,360,20.07388088,-155.4588894,NA,NA,NA,NA,NA
215.2,Honokaa,RICHART MISS N,STATE,BI,579,20.08027035,-155.4972225,NA,NA,NA,NA,NA
215.3,Ahualoa,HONOKAA SUGAR,STATE,BI,559,20.07138223,-155.4958336,NA,NA,NA,NA,NA
215.5,Honokaa,NWS,HydroNet-UaNet,BI,591.9216,20.0656,-155.49,NA,HNKH1,B15047DC,NA,NA
216,Paauhau-P Ranch,PARKER RANCH,STATE,BI,567,20.05527151,-155.4638889,NA,NA,NA,NA,NA
216.1,Paauhau-Grieg,GRIEG TW,STATE,BI,366,20.06360366,-155.4472223,NA,NA,NA,NA,NA
216.2,Paauhau Mauka,PAAUHAU SUGAR,STATE,BI,351,20.0686032,-155.4455557,NA,NA,NA,NA,NA
216.3,Airport-P Sug,PAAUHAU SUGAR,STATE,BI,633,20.04193892,-155.447222,NA,NA,NA,NA,NA
216.4,Pma Plant,PAAUHAU SUGAR,STATE,BI,381,20.06721444,-155.446389,NA,NA,NA,NA,NA
216.5,Field 003,PAAUHAU SUGAR,STATE,BI,280,20.07471374,-155.443056,NA,NA,NA,NA,NA
216.6,HONOKAA 2.5 SSW,HONOKAA 2.5 SSW,CoCoRaHS,BI,757,20.0417,-155.4777,US1HIHI0033,NA,NA,NA,NA
216.7,Field 052,PAAUHAU SUGAR,STATE,BI,671,20.05249432,-155.4791666,NA,NA,NA,NA,NA
216.8,KALOPA 216.8,COOP,COOP,BI,396,20.06111,-155.43528,USC00512982,NA,NA,NA,NA
216.9,HONOKAA 2.7 ESE,HONOKAA 2.7 ESE,CoCoRaHS,BI,333,20.0606,-155.43,US1HIHI0034,NA,NA,NA,NA
217,PAAUHAU 217,PAAUHAU SUGAR,COOP,BI,122,20.08360173,-155.4372236,USC00517204,NA,NA,NA,NA
217.2,PAAUHAU MAUKA 217.2,COOP,COOP,BI,341,20.07306,-155.44722,USC00517209,NA,NA,NA,NA
218,Hamakua Mill,HAMAKUA MILL,STATE,BI,55,20.05027003,-155.3588915,NA,NA,NA,NA,NA
218.1,PAAUILO,PAAUILO,STATE,MA,270,20.063266,-155.3805577,NA,NA,NA,NA,NA
218.2,Field 328,DAVIS HAMAKUA SUGAR,STATE,BI,105,20.06026977,-155.3872241,NA,NA,NA,NA,NA
219,Kukuihaele,SCAN,SCAN,BI,289,20.1,-155.5166667,NA,NA,NA,2102,NA
220,Pma,PAAUHAU SUGAR,STATE,BI,354,20.06860319,-155.4438891,NA,NA,NA,NA,NA
220.1,Kalopa-P Sugar,PAAUHAU SUGAR,STATE,BI,274,20.05193765,-155.4038901,NA,NA,NA,NA,NA
220.2,Pohakea,BLACOW CR,STATE,BI,488,20.03693908,-155.4172228,NA,NA,NA,NA,NA
220.3,Kalopa,PAAUHAU SUGAR,STATE,BI,274,20.05193767,-155.4055566,NA,NA,NA,NA,NA
220.5,Field 015,PAAUHAU SUGAR,STATE,BI,91,20.06749174,-155.4008348,NA,NA,NA,NA,NA
221,PAAUILO 221,HAMAKUA MILL,COOP,BI,244,20.03860487,-155.3688913,USC00517312,NA,NA,NA,NA
221.1,Field 9,HAMAKUA MILL,STATE,BI,305,20.02916121,-155.3605582,NA,NA,NA,NA,NA
221.2,Field 30 (1455),HAMAKUA MILL,STATE,BI,444,20.03360574,-155.3938905,NA,NA,NA,NA,NA
221.3,Hamakua Makai,HSPA,STATE,BI,229,20.04193799,-155.3738912,NA,NA,NA,NA,NA
221.4,Field 30 (2340),HAMAKUA MILL,STATE,BI,713,20.00749664,-155.3883351,NA,NA,NA,NA,NA
221.5,Hamakua,UHAES,STATE,BI,628,20.016386,-155.388056,NA,NA,NA,NA,NA
221.6,PAAUILO 2.5 WSW,PAAUILO 2.5 WSW,CoCoRaHS,BI,576,20.0275,-155.4063,US1HIHI0015,NA,NA,NA,NA
221.7,PAAUILO 2.4 SW,PAAUILO 2.4 SW,CoCoRaHS,BI,613,20.019,-155.3988,US1HIHI0050,NA,NA,NA,NA
222,KUKAIAU 222,HAMAKUA MILL,COOP,BI,256,20.02693892,-155.3422253,USC00514815,NA,NA,NA,NA
222.1,Coffee Plant,KUKAIAU RANCH,STATE,BI,488,20.01360698,-155.3472253,NA,NA,NA,NA,NA
222.2,Kainehe,BLACOW CR,STATE,BI,450,20.02693918,-155.3577805,NA,NA,NA,NA,NA
222.3,Korean Camp,HAMAKUA MILL,STATE,BI,534,20.00860738,-155.3438921,NA,NA,NA,NA,NA
222.4,Paauilo-Notley,NOTLEY C,STATE,BI,76,20.04027122,-155.3625026,NA,NA,NA,NA,NA
222.5,Station 39,HAMAKUA MILL,STATE,BI,579,20.00027466,-155.3272258,NA,NA,NA,NA,NA
222.6,Sugahara Camp,HAMAKUA MILL,STATE,BI,79,20.04027059,-155.3372254,NA,NA,NA,NA,NA
222.7,Field 116,HAMAKUA MILL,STATE,BI,134,20.03166021,-155.325559,NA,NA,NA,NA,NA
222.8,PAAUILO 4.8 SE,PAAUILO 4.8 SE,CoCoRaHS,BI,540,19.996,-155.3179,US1HIHI0043,NA,NA,NA,NA
223,OOKALA 223,LAUPAHOEHOE SUG,COOP,BI,131,20.01527222,-155.2838932,USC00517131,NA,NA,NA,NA
225.1,Veg19,Jon Price,STATE,BI,1179,20.054063,-155.697767,NA,NA,NA,NA,NA
225.11,SimVeg_BI2,Simulated,STATE,BI,22,20.159448,-155.648852,NA,NA,NA,NA,NA
225.2,Veg20,Jon Price,STATE,BI,1643,19.192473,-155.655512,NA,NA,NA,NA,NA
225.3,Veg21,Jon Price,STATE,BI,1647,19.271955,-155.558471,NA,NA,NA,NA,NA
225.4,Veg22,Jon Price,STATE,BI,1591,19.35234,-155.483197,NA,NA,NA,NA,NA
225.5,Veg23,Jon Price,STATE,BI,699,19.339039,-155.133248,NA,NA,NA,NA,NA
225.6,Veg24,Jon Price,STATE,BI,401,19.354805,-155.060398,NA,NA,NA,NA,NA
225.7,Veg25,Jon Price,STATE,BI,451,19.239102,-155.412117,NA,NA,NA,NA,NA
225.8,Veg26,Jon Price,STATE,BI,1591,19.511038,-155.313316,NA,NA,NA,NA,NA
225.9,SimVeg_BI1,Simulated,STATE,BI,68,20.177964,-155.683799,NA,NA,NA,NA,NA
247.1,Veg14,Jon Price,STATE,MA,1241,20.851435,-156.600798,NA,NA,NA,NA,NA
247.2,Veg15,Jon Price,STATE,MA,1172,20.842013,-156.548324,NA,NA,NA,NA,NA
247.3,Veg16,Jon Price,STATE,MA,1184,20.866317,-156.610046,NA,NA,NA,NA,NA
247.5,Veg18,Jon Price,STATE,MA,2051,20.681185,-156.247444,NA,NA,NA,NA,NA
247.6,Veg28,Jon Price,STATE,MA,1996,20.719642,-156.150272,NA,NA,NA,NA,NA
247.7,Veg29,Jon Price,STATE,MA,693,20.867732,-156.569135,NA,NA,NA,NA,NA
247.8,SimVeg_WMaui,Simulated,STATE,MA,1272,20.853384,-156.559063,NA,NA,NA,NA,NA
248,Kanahena,ULUPALAKUA RANCH,STATE,MA,259,20.62681283,-156.4121829,NA,NA,NA,NA,NA
248.1,Papaka,ULUPALAKUA RANCH,STATE,MA,299,20.61459175,-156.3999612,NA,NA,NA,NA,NA
248.2,Keoneoio,ULUPALAKUA RANCH,STATE,MA,3,20.60014856,-156.4199605,NA,NA,NA,NA,NA
249,Makena,ULUPALAKUA RANCH,STATE,MA,3,20.64625562,-156.4424595,NA,NA,NA,NA,NA
249.1,MAKENA GOLF CRS 249.1,MAKE GC,COOP,MA,30,20.6420893,-156.4388486,USC00515842,NA,NA,NA,NA
250,ULUPALAKUA RANCH 250,ULUPALAKUA RANCH,COOP,MA,579,20.648174,-156.398497,USC00518760,NA,NA,NA,NA
250.2,Ulupalakua Ranch,NWS,HydroNet-UaNet,MA,581.5584,20.6487999,-156.3981,NA,ULUH1,8170531A,NA,NA
251,Kanaio,ULUPALAKUA RANCH,STATE,MA,866,20.63125696,-156.3591294,NA,NA,NA,NA,NA
251.1,Luapelani,ULUPALAKUA RANCH,STATE,MA,878,20.63764525,-156.3771843,NA,NA,NA,NA,NA
251.2,SPE House,UlapalakuaRanch,UlapalakuaRanch,MA,614.34,20.6522742,-156.3970579,NA,NA,NA,NA,NA
251.3,HQ / NOAA,UlapalakuaRanch,UlapalakuaRanch,MA,581.52,20.64945173,-156.3981416,NA,NA,NA,NA,NA
251.4,Keonehunehune,UlapalakuaRanch,UlapalakuaRanch,MA,1262.13,20.64937125,-156.3563523,NA,NA,NA,NA,NA
251.5,HQ / ISS,UlapalakuaRanch,UlapalakuaRanch,MA,578.6,20.64881321,-156.3981869,NA,NA,NA,NA,NA
251.6,#3,UlapalakuaRanch,UlapalakuaRanch,MA,827.99,20.65472376,-156.3857771,NA,NA,NA,NA,NA
251.7,Elk,UlapalakuaRanch,UlapalakuaRanch,MA,918.82,20.65637445,-156.3791597,NA,NA,NA,NA,NA
251.8,Papaka 4,UlapalakuaRanch,UlapalakuaRanch,MA,213.75,20.60940906,-156.4010154,NA,NA,NA,NA,NA
251.9,Waihou Old Pen,UlapalakuaRanch,UlapalakuaRanch,MA,1081.64,20.66851582,-156.3666912,NA,NA,NA,NA,NA
252,AUWAHI 252,ULUPALAKUA RANCH,COOP,MA,628,20.62014695,-156.3288529,USC00510175,NA,NA,NA,NA
252.1,Auwahi Makai,UlapalakuaRanch,UlapalakuaRanch,MA,491.57,20.61408157,-156.328775,NA,NA,NA,NA,NA
252.2,Auwahi Mauka,UlapalakuaRanch,UlapalakuaRanch,MA,1188.06,20.64395034,-156.332223,NA,NA,NA,NA,NA
252.3,Maui Meadows,UlapalakuaRanch,UlapalakuaRanch,MA,195.91,20.70052743,-156.4193201,NA,NA,NA,NA,NA
252.4,Makahiku,UlapalakuaRanch,UlapalakuaRanch,MA,512.38,20.68548766,-156.3966647,NA,NA,NA,NA,NA
252.5,Hapakuka,UlapalakuaRanch,UlapalakuaRanch,MA,395.7,20.64405169,-156.4087018,NA,NA,NA,NA,NA
252.6,Kauai 2,UlapalakuaRanch,UlapalakuaRanch,MA,153.57,20.63508201,-156.4238323,NA,NA,NA,NA,NA
252.7,#1 Pen,UlapalakuaRanch,UlapalakuaRanch,MA,796.52,20.642155,-156.383346,NA,NA,NA,NA,NA
252.8,Cornwell,UlapalakuaRanch,UlapalakuaRanch,MA,1526.36,20.675831,-156.345351,NA,NA,NA,NA,NA
252.9,Kanahena,UlapalakuaRanch,UlapalakuaRanch,MA,180.03,20.62899628,-156.4202654,NA,NA,NA,NA,NA
253,AUWAHI HN-141,HaleNet,HaleNet,MA,1166,20.64422222,-156.3420556,NA,NA,NA,NA,NA
253.1,Kaloi,UlapalakuaRanch,UlapalakuaRanch,MA,542.29,20.62396,-156.3861777,NA,NA,NA,NA,NA
253.2,Luapelani,UlapalakuaRanch,UlapalakuaRanch,MA,875.77,20.63777728,-156.3772392,NA,NA,NA,NA,NA
253.3,Papaka,UlapalakuaRanch,UlapalakuaRanch,MA,497.27,20.62748128,-156.3940968,NA,NA,NA,NA,NA
253.4,Pu'uloa,UlapalakuaRanch,UlapalakuaRanch,MA,332.21,20.68097955,-156.4111743,NA,NA,NA,NA,NA
253.5,Lapakuaea,UlapalakuaRanch,UlapalakuaRanch,MA,246.89,20.6731797,-156.4184189,NA,NA,NA,NA,NA
253.6,Haliimaile,UlapalakuaRanch,UlapalakuaRanch,MA,387,20.85108194,-156.3430798,NA,NA,NA,NA,NA
253.7,Cornland 1 Wailuku,UlapalakuaRanch,UlapalakuaRanch,MA,931.19,20.66548481,-156.3780663,NA,NA,NA,NA,NA
253.8,Kuhulu 1,UlapalakuaRanch,UlapalakuaRanch,MA,683.78,20.66858125,-156.3895007,NA,NA,NA,NA,NA
253.9,Pu'u Ouli Bowl,UlapalakuaRanch,UlapalakuaRanch,MA,1589.01,20.66129185,-156.3411417,NA,NA,NA,NA,NA
254,Kahikinui,ULUPALAKUA RANCH,STATE,MA,427,20.62014712,-156.2688556,NA,NA,NA,NA,NA
254.1,Manukahi,ULUPALAKUA RANCH,STATE,MA,1006,20.64070062,-156.2905213,NA,NA,NA,NA,NA
254.2,Kaulaula,ULUPALAKUA RANCH,STATE,MA,1159,20.64264486,-156.312187,NA,NA,NA,NA,NA
254.3,Pu'u Kolu,UlapalakuaRanch,UlapalakuaRanch,MA,296.57,20.60150736,-156.3291261,NA,NA,NA,NA,NA
254.4,Kuhulu 4,UlapalakuaRanch,UlapalakuaRanch,MA,735.19,20.67988254,-156.3862668,NA,NA,NA,NA,NA
254.5,Waikahi,UlapalakuaRanch,UlapalakuaRanch,MA,1389.24,20.68282577,-156.3458781,NA,NA,NA,NA,NA
254.6,"Puuloa 2, Keawekapu",UlapalakuaRanch,UlapalakuaRanch,MA,291.27,20.68550191,-156.4135465,NA,NA,NA,NA,NA
254.7,Waihou,UlapalakuaRanch,UlapalakuaRanch,MA,1438.94,20.66828841,-156.3525879,NA,NA,NA,NA,NA
255,KepuniGulchRainGage,USGS,USGS,MA,225.552,20.6195,-156.2518889,NA,KPNH1,F000D4EA,NA,NA
256,WAIOPAI RANCH 256,HALEAKALA RANCH,COOP,MA,67,20.63014664,-156.2038592,USC00519765,NA,NA,NA,NA
256.1,Puu Kao,HALEAKALA RANCH,STATE,MA,1159,20.66680944,-156.2188587,NA,NA,NA,NA,NA
256.2,Waiopai Ranch 1,HALEAKALA RANCH,STATE,MA,189,20.63292404,-156.212192,NA,NA,NA,NA,NA
257,Nuu,KAUPO RANCH,STATE,MA,8,20.6268139,-156.1738606,NA,NA,NA,NA,NA
257.1,Nakula,KAUPO RANCH,STATE,MA,479,20.65514412,-156.1921934,NA,NA,NA,NA,NA
257.2,Keeke,KAUPO RANCH,KaupoRanch,MA,259,20.64419167,-156.1613333,NA,NA,NA,NA,NA
257.3,Red Tank,KAUPO RANCH,STATE,MA,157,20.63348,-156.1455286,NA,NA,NA,NA,NA
257.4,Store,KAUPO RANCH,STATE,MA,86,20.63653566,-156.1219188,NA,NA,NA,NA,NA
258,KIPAHULU 258,HA RANCH,COOP,MA,79,20.65347899,-156.0555337,USC00514634,NA,NA,NA,NA
258.1,Kipahulu,KIPAHULU SUGAR,STATE,MA,95,20.65514546,-156.0555337,NA,NA,NA,NA,NA
258.2,Kaupo Mokulau,JS GARNETT,STATE,MA,87,20.64347946,-156.1071974,NA,NA,NA,NA,NA
258.3,Kaupo 500,USDA FRUIT FLY LAB,STATE,MA,152,20.6451459,-156.1071975,NA,NA,NA,NA,NA
258.4,Kukuiula Gulch,USGS,USGS,MA,27,20.65097896,-156.0755325,NA,NA,NA,NA,NA
258.5,Palikea,HANA RANCH,STATE,MA,317,20.66792039,-156.3905171,NA,NA,NA,NA,NA
258.6,OHE'O 258.6,HALEAKALA TL PK,COOP,MA,24,20.662925,-156.04248,USC00517000,NA,NA,NA,NA
259,HQ Headquaters,KAUPO RANCH,STATE,MA,303,20.64831111,-156.1355667,NA,NA,NA,NA,NA
259.1,Noholoku,KAUPO RANCH,KaupoRanch,MA,698.6675,20.66223611,-156.1397333,NA,NA,NA,NA,NA
259.2,PANILEIHULU 259.2,KAUPO RANCH,COOP,MA,1088,20.67514273,-156.1355297,USC00517674,NA,NA,NA,NA
259.3,Paliku,HALEAKALA NATL PARK,STATE,MA,1939,20.7168051,-156.1405298,NA,NA,NA,NA,NA
259.4,Central Crater,HALEAKALA NATL PARK,STATE,MA,2232,20.72208203,-156.1985824,NA,NA,NA,NA,NA
259.5,HOLUA CABIN 259.5,HALEAKALA NATL PARK,COOP,BI,2134,20.74152451,-156.2180253,USC00511552,NA,NA,NA,NA
259.6,Castle,KaupoRanch,KaupoRanch,MA,100.7,20.63448889,-156.1262806,NA,NA,NA,NA,NA
259.7,Lucinda,KaupoRanch,KaupoRanch,MA,143.51,20.63345556,-156.1442917,NA,NA,NA,NA,NA
259.8,Puumaneoneo,KaupoRanch,KaupoRanch,MA,108.31,20.62845,-156.1642611,NA,NA,NA,NA,NA
259.9,Ala Akua,KaupoRanch,KaupoRanch,MA,277.15,20.64923889,-156.1305611,NA,NA,NA,NA,NA
260,Keawakapu,HALEAKALA RANCH,STATE,MA,113,20.7168054,-156.4271824,NA,NA,NA,NA,NA
260.1,Kamaole Height,CW BRAM,STATE,MA,39,20.70847282,-156.4405152,NA,NA,NA,NA,NA
260.2,KEAWAKAPU BCH 260.2,AL CORELL,COOP,MA,6,20.69514055,-156.4438484,USC00514193,NA,NA,NA,NA
261,Puu Loa,ULUPALAKUA RANCH,STATE,MA,335,20.68014164,-156.4105163,NA,NA,NA,NA,NA
261.3,TWIN GATES 261.3,KAONOULU RANCH,COOP,MA,399,20.75513527,-156.3771844,USC00518742,NA,NA,NA,NA
262,Kamaole Pen,HALEAKALA RANCH,STATE,MA,542,20.7001399,-156.3888507,NA,NA,NA,NA,NA
263,Kamaole Ah Mee,HALEAKALA RANCH,STATE,MA,604,20.69680683,-156.3838509,NA,NA,NA,NA,NA
264,Waihou,ULUPALAKUA RANCH,STATE,MA,1098,20.66625383,-156.3671848,NA,NA,NA,NA,NA
264.1,Malie,ULUPALAKUA RANCH,STATE,MA,659,20.67708628,-156.3905172,NA,NA,NA,NA,NA
265,Kamaole Mauka,HALEAKALA RANCH,STATE,MA,820,20.7001398,-156.3638517,NA,NA,NA,NA,NA
266,KAUPO GAP,RAWS,RAWS,MA,1228.344,20.68416667,-156.1519444,USR0000HKAU,KPGH1,FA45A6E0,NA,NA
267,KULA HOSPITAL 267,KULA SATORIUM,COOP,MA,916,20.70013977,-156.3555187,USC00515004,NA,NA,NA,NA
267.1,Kula Cabin,BD OF A&F,STATE,MA,1598,20.68847406,-156.3355195,NA,NA,NA,NA,NA
267.2,POLIPOLI SPRINGS 267.2,BD OF A&F,COOP,MA,1875,20.67847493,-156.3288532,USC00518070,NA,NA,NA,NA
267.3,Kula House,HF RICE,STATE,MA,942,20.73013712,-156.3355196,NA,NA,NA,NA,NA
267.4,Kaonoulu,COOKE CM III,STATE,MA,960,20.73291466,-156.3338531,NA,NA,NA,NA,NA
267.8,KULA 1,KULA 1,RAWS,MA,1998.5736,20.68305556,-156.3216667,NA,KLFH1,AA10F12E,NA,NA
276,BIG BOG HN-164,HaleNet,HaleNet,MA,1650,20.72655556,-156.09225,NA,NA,NA,NA,NA
277,HORSHOE PU'U HN-163,HaleNet,HaleNet,MA,1930,20.73630556,-156.1071389,NA,NA,NA,NA,NA
278,TREE LINE HN-162,HaleNet,HaleNet,MA,2195,20.73422222,-156.1228889,NA,NA,NA,NA,NA
278.1,Lakes - Subalpine,Lakes - Subalpine,Little HaleNet,MA,2228,20.73492113,-156.1234398,NA,NA,NA,NA,NA
278.11,Puu Alaea - Cloud forest,Puu Alaea - Cloud forest,Little HaleNet,MA,1993,20.745673,-156.1425145,NA,NA,NA,NA,NA
278.12,Puu Alaea - Forest line,Puu Alaea - Forest line,Little HaleNet,MA,2033,20.74567736,-156.1424321,NA,NA,NA,NA,NA
278.2,Lakes - Forest line,Lakes - Forest line,Little HaleNet,MA,2182,20.735063,-156.1222481,NA,NA,NA,NA,NA
278.3,Lakes - Cloud forest,Lakes - Cloud forest,Little HaleNet,MA,2143,20.73575551,-156.1214124,NA,NA,NA,NA,NA
278.4,Lakes - Alpine,Lakes - Alpine,Little HaleNet,MA,2304,20.73450891,-156.1273482,NA,NA,NA,NA,NA
278.5,Frisbee - Alpine,Frisbee - Alpine,Little HaleNet,MA,2320,20.73857613,-156.1365744,NA,NA,NA,NA,NA
278.6,Frisbee - Subalpine,Frisbee - Subalpine,Little HaleNet,MA,2191,20.74071537,-156.1350318,NA,NA,NA,NA,NA
278.7,Frisbee - Forest line,Frisbee - Forest line,Little HaleNet,MA,2135,20.74195056,-156.1342138,NA,NA,NA,NA,NA
278.71,Frisbee - Cloud forest,Frisbee - Cloud forest,Little HaleNet,MA,2087,20.73622225,-156.1341472,NA,NA,NA,NA,NA
278.8,Puu Alaea - Alpine,Puu Alaea - Alpine,Little HaleNet,MA,2320,20.74402239,-156.1421477,NA,NA,NA,NA,NA
278.9,Puu Alaea - Subalpine,Puu Alaea - Subalpine,Little HaleNet,MA,2075,20.74489428,-156.1421289,NA,NA,NA,NA,NA
279,POHAKAU PALAHA HN-161,HaleNet,HaleNet,MA,2460,20.73061111,-156.1413056,NA,NA,NA,NA,NA
280.1,OheoGulchRGatdamnearKipahulu,OheoGulchRGatdamnearKipahulu,USGS,MA,128.016,20.66836111,-156.0522222,NA,NA,NA,NA,NA
281,HANAHULI 281,G BUTLER,COOP,MA,116,20.68847527,-156.017203,USC00511148,NA,NA,NA,NA
282,HAMOA 282,HAROLD ASHWORTH,COOP,MA,32,20.71180528,-156.0010931,USC00511100,NA,NA,NA,NA
296,Olowalu-P Mill,PIONEER MILL,STATE,MA,2,20.80877472,-156.6231608,NA,NA,NA,NA,NA
296.1,OLOWALU 296.1,PIONEER MILL,COOP,MA,8,20.81179866,-156.618842,USC00517059,NA,NA,NA,NA
296.2,Olowalu,A HANEBURG,STATE,MA,5,20.81013222,-156.6221752,NA,NA,NA,NA,NA
297,Olowalu,USGS,USGS,MA,40,20.82305556,-156.6341667,NA,NA,NA,NA,NA
301,UKUMEHAME 301,PIONEER MILL,COOP,MA,23,20.8034657,-156.5871762,USC00518750,NA,NA,NA,NA
302,MAALAEA BAY,NWS,STATE,MA,302,20.7903,-156.514,NA,P36,15DF05C6,NA,NA
307,Reservior 9,WAILUKU SUGAR,STATE,MA,91,20.81846461,-156.5138451,NA,NA,NA,NA,NA
307.1,Puuhele,WAILUKU SUGAR,STATE,MA,27,20.80179921,-156.5071788,NA,NA,NA,NA,NA
307.2,POHAKEA BRIDGE 307.2,WAILUKU SUGAR,COOP,MA,50,20.81346495,-156.5071787,USC00518060,NA,NA,NA,NA
307.3,F908,F908,HC&S,MA,41,20.80713456,-156.5024709,NA,NA,NA,NA,NA
310,Field 906 Vil 7,HC&S,STATE,MA,26,20.81179831,-156.4955123,NA,NA,NA,NA,NA
310.2,F907,F907,HC&S,MA,49,20.82150733,-156.4993746,NA,NA,NA,NA,NA
310.22,F906,F906,HC&S,MA,73,20.82150733,-156.4993746,NA,NA,NA,NA,NA
310.3,Res 91-Fld 906,HC&S,HC&S,MA,49,20.81902002,-156.501901,NA,NA,NA,NA,NA
311,KIHEI 311,HC&S,COOP,MA,26,20.78513334,-156.4505143,USC00514489,NA,NA,NA,NA
311.1,Field 908,HC&S,STATE,MA,6,20.80179877,-156.4671802,NA,NA,NA,NA,NA
311.2,Kealia Pond NWR,Kealia Pond NWR,RAWS,MA,3.6576,20.7975,-156.4772222,NA,KPDH1,32B2C438,NA,NA
311.3,KulanihakoiRaingagenrKihei,USGS,USGS,MA,10.668,20.76514444,-156.4480167,NA,NA,NA,NA,NA
311.4,Kihei,HC&S,HC&S,MA,7,20.7634685,-156.4516256,NA,NA,NA,NA,NA
311.5,Kihei 2,NWS,HydroNet-UaNet,MA,54.5592,20.7061005,-156.437,NA,KHIH1,93202508,NA,NA
311.6,F820,F820,HC&S,MA,68,20.79125141,-156.4421843,NA,NA,NA,NA,NA
311.7,F911,F911,HC&S,MA,67,20.81911804,-156.4730019,NA,NA,NA,NA,NA
312,PUUNENE CAA AIRPORT,FAA,COOP,MA,39.9,20.83333,-156.46667,USW00022525,NA,NA,NA,NA
312.1,Res 90 Ap Vil,HC&S,STATE,MA,38,20.821849,-156.456012,NA,NA,NA,NA,NA
312.2,F916,F916,HC&S,MA,33,20.82126779,-156.4552487,NA,NA,NA,NA,NA
313,CAMP K 3 HCS 313,HC&S,COOP,MA,78.9,20.81667,-156.43333,USC00510260,NA,NA,NA,NA
313.2,Field 710,HC&S,HC&S,MA,26,20.81790806,-156.4305147,NA,NA,NA,NA,NA
313.4,F811,F811,HC&S,MA,105,20.80733084,-156.431548,NA,NA,NA,NA,NA
314,Res 81,HC&S,STATE,MA,162,20.81679691,-156.4038492,NA,NA,NA,NA,NA
314.1,Field 412,HC&S,HC&S,MA,192,20.79985392,-156.4080159,NA,NA,NA,NA,NA
314.2,F415,F415,HC&S,MA,211,20.7839958,-156.4081719,NA,NA,NA,NA,NA
314.3,F805,F805,HC&S,MA,149,20.8141153,-156.416852,NA,NA,NA,NA,NA
315,PULEHU 315,HC&S,COOP,MA,136.9,20.8333,-156.41667,USC00518275,NA,NA,NA,NA
315.1,F406,F406,HC&S,MA,158,20.8249298,-156.4062924,NA,NA,NA,NA,NA
316,Field 405,HC&S,STATE,MA,203,20.82346299,-156.3921829,NA,NA,NA,NA,NA
316.1,Field 506,HC&S,STATE,MA,139,20.83512872,-156.4021823,NA,NA,NA,NA,NA
316.4,F506,F506,HC&S,MA,168,20.83612045,-156.4021379,NA,NA,NA,NA,NA
317,Field 401,HC&S,STATE,MA,252,20.8134638,-156.3832945,NA,NA,NA,NA,NA
317.1,Field 408 Masi,HSPA,STATE,MA,238,20.81179728,-156.3871833,NA,NA,NA,NA,NA
317.2,Field 413,HC&S,HC&S,MA,237,20.8129083,-156.3891276,NA,NA,NA,NA,NA
317.3,F413,F413,HC&S,MA,256,20.81767236,-156.3869903,NA,NA,NA,NA,NA
318,Waiakoa,HALEAKALA RANCH,STATE,MA,343,20.77680013,-156.3755176,NA,NA,NA,NA,NA
318.1,Field 150,MAUI PINE,STATE,MA,470,20.77013394,-156.3621849,NA,NA,NA,NA,NA
320,Gage 22,LIBBY,STATE,MA,564,20.82012971,-156.3288523,NA,NA,NA,NA,NA
320.1,Field 47,LIBBY,STATE,MA,335,20.82679594,-156.3555177,NA,NA,NA,NA,NA
320.2,Gage 27,LIBBY,STATE,MA,622,20.81679659,-156.3188528,NA,NA,NA,NA,NA
321,Puu Ka Kae,HALEAKALA RANCH,STATE,MA,488,20.79179878,-156.3538517,NA,NA,NA,NA,NA
321.1,Field 60,MAUI PINE,STATE,MA,369,20.81346371,-156.3588511,NA,NA,NA,NA,NA
321.2,Field 58,MAUI PINE,STATE,MA,567,20.80679748,-156.3371855,NA,NA,NA,NA,NA
321.3,Omaopio,HAWN PINE,STATE,MA,473,20.80513101,-156.3505182,NA,NA,NA,NA,NA
321.4,Field 400,HC&S,HC&S,MA,302,20.82068538,-156.3685728,NA,NA,NA,NA,NA
321.6,F400,F400,HC&S,MA,323,20.82032023,-156.3680169,NA,NA,NA,NA,NA
322,Erehwon Makai,HALEAKALA RANCH,STATE,MA,561,20.77679997,-156.3455189,NA,NA,NA,NA,NA
322.1,Field 100,MAUI PINE,STATE,MA,390,20.79179883,-156.3638513,NA,NA,NA,NA,NA
323,Garcia,HALEAKALA RANCH,STATE,MA,759,20.78013291,-156.3255197,NA,NA,NA,NA,NA
323.1,Field W,MAUI PINE,STATE,MA,701,20.79679822,-156.3255194,NA,NA,NA,NA,NA
323.2,KULA HEIGHTS 323.2,KEN WILEY,COOP,MA,768,20.78513247,-156.3205198,USC00515003,NA,NA,NA,NA
324,Erehwon Mauka,HALEAKALA RANCH,STATE,MA,1143,20.75346829,-156.3071874,NA,NA,NA,NA,NA
324.1,Kula,FG CORREA,STATE,MA,823,20.74346934,-156.3371862,NA,NA,NA,NA,NA
324.2,Kula,USDA FRUIT FLY LAB,STATE,MA,1143,20.7534683,-156.308854,NA,NA,NA,NA,NA
324.3,Kula,USDA FRUIT FLY LAB,STATE,MA,1113,20.74013616,-156.3171871,NA,NA,NA,NA,NA
324.4,Kula Korte,K KORTE,STATE,MA,1140,20.75485708,-156.3091317,NA,NA,NA,NA,NA
324.5,KULA BRNCH STATION 324.5,UH EXP STA,COOP,MA,930,20.7586,-156.3211,USC00518743,NA,NA,NA,NA
324.6,KULA AG HN-119,HaleNet,HaleNet,MA,965,20.75788889,-156.3200278,NA,NA,NA,NA,NA
324.7,Kula Branch Stn,NWS,HydroNet-UaNet,MA,944.88,20.7577991,-156.3217,USC00515000,KBSH1,93220610,NA,NA
325,Field 291,MAUI PINE,STATE,MA,598,20.8101305,-156.3271858,NA,NA,NA,NA,NA
325.1,Kalialinui,HALEAKALA RANCH,STATE,MA,595,20.80679747,-156.3338523,NA,NA,NA,NA,NA
325.2,Fld 298,MAUI PINE,STATE,MA,561,20.81429686,-156.3324633,NA,NA,NA,NA,NA
326,Nolle Smith,MRS C NOLLESMITH,STATE,MA,1049,20.76013442,-156.3105205,NA,NA,NA,NA,NA
327,Field 290,MAUI PINE,STATE,MA,799,20.80179774,-156.3138532,NA,NA,NA,NA,NA
327.1,Kula Camp,MAUI PINE,STATE,MA,671,20.80513088,-156.3238528,NA,NA,NA,NA,NA
327.2,Tompkin-Kulakai,TOMPKIN G W,STATE,MA,720,20.79568717,-156.3207974,NA,NA,NA,NA,NA
328,KULA EREHWON 328,M ISOBE,COOP,MA,1174,20.75180173,-156.3038542,USC00515001,NA,NA,NA,NA
328.2,Haleakala,USDA FRUIT FLY LAB,STATE,MA,1677,20.75513454,-156.2771886,NA,NA,NA,NA,NA
328.4,PU'U PAHU HN-106,HaleNet,HaleNet,MA,960,20.75763889,-156.2775,NA,NA,NA,NA,NA
329,LOWER KAHUKU CS,BD OF A&F,STATE,MA,1149,20.80179746,-156.2805211,NA,LKHH1,NA,NA,NA
329.1,Olinda,UH EXP STA,STATE,MA,1073,20.80846362,-156.280521,NA,NA,NA,NA,NA
329.2,Olinda-Lindsay,JAMES LINDSAY,STATE,MA,1091,20.80679707,-156.2791322,NA,NA,NA,NA,NA
329.3,Olinda-Boyum,SEVATH BOYUM,STATE,MA,1001,20.8134633,-156.2874651,NA,NA,NA,NA,NA
330,Gomi,HALEAKALA RANCH,STATE,MA,1067,20.780708,-156.299674,NA,NA,NA,NA,NA
330.2,Kula Lodge,FL JAMES,STATE,MA,979,20.77679969,-156.3071871,NA,NA,NA,NA,NA
331,Mountain,HALEAKALA RANCH,STATE,MA,1677,20.78123,-156.257443,NA,NA,NA,NA,NA
331.2,Mountain Paddock,UNKNOWN,STATE,MA,1677,20.77846577,-156.2588557,NA,NA,NA,NA,NA
332,OLINDA NUMBER 1 332,MAUI COUNTY DWS,COOP,MA,1258,20.79679779,-156.2738548,USC00517040,NA,NA,NA,NA
333,UKULELE 333,HALEAKALA RANCH,COOP,MA,1595,20.79179801,-156.2521891,USC00518744,NA,NA,NA,NA
334,Olinda 2,MAUI COUNTY DWS,STATE,MA,1284,20.80513035,-156.2571887,NA,NA,NA,NA,NA
334.1,Olinda 3,MAUI COUNTY DWS,STATE,MA,890,20.82818424,-156.2719099,NA,NA,NA,NA,NA
335,Intake,HALEAKALA RANCH,STATE,MA,1601,20.79179798,-156.2338568,NA,NA,NA,NA,NA
335.1,Haleakala Ranch,HALEAKALA RANCH,STATE,MA,1512,20.79679758,-156.2388565,NA,NA,NA,NA,NA
336,WAIKAMOI DAM 336,EMI,COOP,MA,1317,20.8089,-156.2299,USC00519335,NA,NA,NA,NA
336.1,Opana,EMI,STATE,MA,1273,20.81179642,-156.2421893,NA,NA,NA,NA,NA
337,south rim,south rim,CraterNet,MA,2898,20.703948,-156.241101,NA,NA,NA,NA,NA
337.1,Sliding Sands,Sliding Sands,CraterNet,MA,2697,20.714563,-156.2394,NA,NA,NA,NA,NA
337.11,Pohaku Palaha,Pohaku Palaha,CraterNet,MA,2461,20.7300298,-156.140176,NA,NA,NA,NA,NA
337.12,Puu Alaea,Puu Alaea,CraterNet,MA,2282,20.73782363,-156.1453106,NA,NA,NA,NA,NA
337.13,Paliku,Paliku,CraterNet,MA,1927,20.71236611,-156.1437572,NA,NA,NA,NA,NA
337.2,Puu o Pele,Puu o Pele,CraterNet,MA,2424,20.709651,-156.224485,NA,NA,NA,NA,NA
337.3,Lava lake,Lava lake,CraterNet,MA,2270,20.718443,-156.212261,NA,NA,NA,NA,NA
337.4,Silversword loop,Silversword loop,CraterNet,MA,2186,20.731704,-156.205387,NA,NA,NA,NA,NA
337.5,Leleiwi,Leleiwi,CraterNet,MA,2722,20.74337371,-156.2288651,NA,NA,NA,NA,NA
337.6,Puu Nole,Puu Nole,CraterNet,MA,2261,20.717807,-156.188007,NA,NA,NA,NA,NA
337.7,Hanakauhi,Hanakauhi,CraterNet,MA,2645,20.73567887,-156.1754875,NA,NA,NA,NA,NA
337.8,Aloha Park,Aloha Park,CraterNet,MA,2455,20.73555054,-156.1587809,NA,NA,NA,NA,NA
337.9,Laie,Laie,CraterNet,MA,2051,20.7229056,-156.1544823,NA,NA,NA,NA,NA
338,HALEAKALA RANGER STATION 338,HAWAII T PARK,COOP,MA,2143,20.75846738,-156.2455233,USC00511004,NA,NA,NA,NA
338.1,Honomanu Gulch,EMI,STATE,MA,2302,20.75680091,-156.2255246,NA,NA,NA,NA,NA
338.2,Waikamoi,BD OF A&F,STATE,MA,2050,20.76846654,-156.230524,NA,NA,NA,NA,NA
338.3,Haleakala Ranch,USN,STATE,MA,2973,20.71347155,-156.2505236,NA,NA,NA,NA,NA
338.4,HALEAKALA SUMMIT 338,SMITHSONIAN INST 1,COOP,MA,3037,20.71667,-156.26667,USC00511008,NA,NA,NA,NA
338.5,KOLE KOLE,REBER GROTE      1,COOP,MA,3055,20.70680551,-156.2555234,USC00514725,NA,NA,NA,NA
338.7,Haleakala,USDA FRUIT FLY LAB,STATE,MA,2805,20.73513619,-156.2371909,NA,NA,NA,NA,NA
339.4,PARK HQ HN-151,HaleNet,HaleNet,MA,2120,20.75980556,-156.2481667,NA,NA,NA,NA,NA
339.5,NENE NEST HN-152,HaleNet,HaleNet,MA,2590,20.73819444,-156.2458333,NA,NA,NA,NA,NA
339.6,SUMMIT HN-153,HaleNet,HaleNet,MA,2990,20.71036111,-156.25675,NA,NA,NA,NA,NA
340,Waikamoi,HALEAKALA RANCH,STATE,MA,1756,20.78346532,-156.2271907,NA,NA,NA,NA,NA
341,HONOMANU GULCH 341,HALEAKALA RANCH,COOP,MA,1914,20.77778,-156.23111,USC00511935,NA,NA,NA,NA
341.1,Waikamoi Run1,BD OF A&F,STATE,MA,1936,20.77513264,-156.2305239,NA,NA,NA,NA,NA
341.2,Waikamoi Run2,BD OF A&F,STATE,MA,2159,20.76346699,-156.2271911,NA,NA,NA,NA,NA
341.3,Waikamoi Run3,BD OF A&F,STATE,MA,1988,20.77346608,-156.2405233,NA,NA,NA,NA,NA
341.4,Waikamoi Run4,BD OF A&F,STATE,MA,1918,20.77846569,-156.2405232,NA,NA,NA,NA,NA
341.6,Puu Nianiau,UNKNOWN,STATE,MA,1951,20.77513261,-156.2405233,NA,NA,NA,NA,NA
341.7,WAIKAMOI HN-142,HaleNet,HaleNet,MA,1960,20.76846654,-156.230524,NA,NA,NA,NA,NA
342,Puohakamoa,MAUI COUNTY WATER,STATE,MA,1311,20.8034637,-156.2205239,NA,NA,NA,NA,NA
343,PUOHOKAMOA 2 343,EMI,COOP,MA,909,20.82679503,-156.2121905,USC00518336,NA,NA,NA,NA
343.1,Middle Branch,USGS,USGS,MA,884,20.82512849,-156.2110795,NA,NA,NA,NA,NA
344,HONOMANU MAUKA 344,EMI,COOP,MA,915,20.8201289,-156.2088575,USC00511940,NA,NA,NA,NA
344.2,Fld 413 Masi,HSPA,STATE,MA,237,20.82123992,-156.209413,NA,NA,NA,NA,NA
345,EAST HONOMANU 345,EMI,COOP,MA,976,20.81179616,-156.1971916,USC00510452,NA,NA,NA,NA
346,KEANAE 346,EMI,COOP,MA,296,20.82679408,-156.1638595,USC00514091,NA,NA,NA,NA
346.1,Keanae Valley,EMI,STATE,MA,598,20.81846196,-156.1805255,NA,NA,NA,NA,NA
348,WAILUA IKI 348,EMI,COOP,MA,802,20.8,-156.15,USC00519460,NA,NA,NA,NA
348.1,Wailua Iki 7,EMI,STATE,MA,811,20.79179739,-156.1505279,NA,NA,NA,NA,NA
348.2,Wailua Iki 5,EMI,STATE,MA,610,20.8051292,-156.1421946,NA,NA,NA,NA,NA
348.3,Wailua Iki 8,EMI,STATE,MA,503,20.81179506,-156.1388612,NA,NA,NA,NA,NA
348.5,WestWailuaikiRainGagenrKeanae,USGS,USGS,MA,472.44,20.81436111,-156.1429722,NA,WWKH1,DD5E710A,NA,NA
350,PAAKEA 350,EMI,COOP,MA,390,20.81179461,-156.1171956,USC00517194,NA,NA,NA,NA
350.1,Nahiku,NAHIKU RUBBER,STATE,MA,226,20.81179439,-156.0938637,NA,NA,NA,NA,NA
350.2,Nahiku Mauka,WF POGUE,STATE,MA,488,20.79346351,-156.0971973,NA,NA,NA,NA,NA
350.3,Nahiku,RH WOERALL,STATE,MA,37,20.8234593,-156.0905301,NA,NA,NA,NA,NA
351,Kuhiwa Gulch,EMI,STATE,MA,841,20.77679871,-156.1105303,NA,NA,NA,NA,NA
352,PUU PAKI 352,COOP,COOP,MA,658,20.77361,-156.05667,USC00518553,NA,NA,NA,NA
352.1,HONOMAELE MAUKA,KAELEKU SUGAR,COOP,MA,762,20.76179949,-156.0538669,USC00511920,NA,NA,NA,NA
352.2,Mokulehua,BD OF A&F,STATE,MA,201,20.79346279,-156.0555327,NA,NA,NA,NA,NA
353,Hana AP,NWS,HydroNet-UaNet,MA,19,20.7946,-156.0157,USC00511125,HNAH1,B150314C,NA,NA
354,HANA,HA RANCH,COOP,MA,40,20.74957743,-155.9872048,USC00511122,NA,NA,NA,NA
354.1,HANA MAUKA,KAELEKU SUGAR,COOP,MA,524,20.75180013,-156.0238688,USC00511211,NA,NA,NA,NA
354.2,Hana Plantation,KS GJERDRUM,STATE,MA,61,20.73846802,-155.9888716,NA,NA,NA,NA,NA
354.3,Hana Iuka,KS GJERDRUM,STATE,MA,549,20.73846852,-156.0172028,NA,NA,NA,NA,NA
355,HANA AIRPORT 355,HAWN AIRLINES,COOP,MA,24,20.792,-156.017,USC00511125,NA,NA,NA,NA
355.1,KAELEKU,KAELEKU SUGAR,COOP,MA,91,20.78346257,-156.0222012,USC00512398,NA,NA,NA,NA
355.2,HONOMAELE 355.2,HONOMAELE 355.2,COOP,MA,104,20.7939,-156.0414,USC00511921,NA,NA,NA,NA
360,Field I-3,PIONEER MILL,STATE,MA,61,20.90679252,-156.6788398,NA,NA,NA,NA,NA
361,LAHAINA 361,PIONEER MILL,COOP,MA,78,20.87679494,-156.6738405,USC00515177,NA,NA,NA,NA
361.1,Lahainaluna,NWS,HydroNet-UaNet,MA,238.0488,20.8909,-156.6556,NA,LAHH1,81700366,NA,NA
361.2,Kahoma Stream,USGS,STATE,MA,27,20.88262771,-156.6738404,NA,NA,NA,NA,NA
362,Frank Lua,PIONEER MILL,STATE,MA,23,20.87012822,-156.6666182,NA,NA,NA,NA,NA
363,Field F-1,PIONEER MILL,STATE,MA,274,20.91012466,-156.6588399,NA,NA,NA,NA,NA
364,WAHIKULI 364,PIONEER MILL,COOP,MA,177,20.89679257,-156.6621736,USC00518955,NA,NA,NA,NA
365,Field MD-1,PIONEER MILL,STATE,MA,23,20.86012915,-156.662174,NA,NA,NA,NA,NA
365.1,Field MC 1,PIONEER MILL,STATE,MA,84,20.86179494,-156.6555072,NA,NA,NA,NA,NA
365.2,Field MA-1,PIONEER MILL,STATE,MA,198,20.86346063,-156.6438405,NA,NA,NA,NA,NA
366,Field LB-2,PIONEER MILL,STATE,MA,174,20.881996,-156.656526,NA,NA,NA,NA,NA
367,Joe Lua,PIONEER MILL,STATE,MA,84,20.87179411,-156.6588404,NA,NA,NA,NA,NA
370,Field E-1,PIONEER MILL,STATE,MA,390,20.90679158,-156.6518957,NA,NA,NA,NA,NA
371,Field LB-7,PIONEER MILL,STATE,MA,160,20.87012701,-156.650507,NA,NA,NA,NA,NA
372,LAUNIUPOKO VILLG 372,PIONEER MILL,COOP,MA,76,20.85179493,-156.6455071,USC00515408,NA,NA,NA,NA
372.1,Field MC-7,PIONEER MILL,STATE,MA,30,20.846536,-156.649414,NA,NA,NA,NA,NA
373,Field LA-5,PIONEER MILL,STATE,MA,297,20.87845968,-156.6455071,NA,NA,NA,NA,NA
374,KAHOMA INTAKE 374,PIONEER MILL,COOP,MA,610,20.901204,-156.623574,USC00512552,NA,NA,NA,NA
375,KAUAULA INTAKE 375,PIONEER MILL,COOP,MA,482,20.87679294,-156.6221744,USC00513433,NA,NA,NA,NA
376,LAUNIUPOKO INTAKE 376,PIONEER MILL,COOP,MA,390,20.854119,-156.617207,USC00515404,NA,NA,NA,NA
377,OLOWALU GULCH 377,PIONEER MILL,COOP,MA,232,20.840639,-156.593579,USC00517066,NA,NA,NA,NA
378,Power House 2,PIONEER MILL,STATE,MA,305,20.87345987,-156.6405072,NA,NA,NA,NA,NA
380,PuuKukuiRainGageatalt,BALDWIN PKRS,USGS,MA,1759,20.89083333,-156.6008333,USC00514887,PKKH1,DD73556E,NA,NA
386,WAILUKU 386,WAILUKU SUGAR,COOP,MA,55,20.89345755,-156.4971783,USC00519484,NA,NA,NA,NA
386.1,Wailuku,WAILUKU SUGAR,STATE,MA,119,20.88345869,-156.507178,NA,NA,NA,NA,NA
386.2,Wailuku Alex,WP ALEXANDER,STATE,MA,76,20.88345861,-156.5021781,NA,NA,NA,NA,NA
386.4,Happy Valley,WILLIAM COPE,STATE,MA,91,20.89290221,-156.5057891,NA,NA,NA,NA,NA
386.5,Field 37,WAILUKU SUGAR,STATE,MA,134,20.90290154,-156.5118999,NA,NA,NA,NA,NA
386.6,Wailuku,NWS,HydroNet-UaNet,MA,146.9136,20.8831005,-156.5124,NA,WUKH1,9321D776,NA,NA
387,Hopoi Reservoir,WAILUKU SUGAR,STATE,MA,116,20.87679263,-156.5055114,NA,NA,NA,NA,NA
387.1,Iao Valley,WAILUKU SUGAR,STATE,MA,220,20.88345908,-156.5355103,NA,NA,NA,NA,NA
387.2,Iao Needle,US CORPS OF ENGR,STATE,MA,381,20.88012615,-156.5471767,NA,NA,NA,NA,NA
387.3,WAILUKU 2.2 W,WAILUKU 2.2 W,CoCoRaHS,MO,258,20.8825,-156.5398,US1HIMI0005,NA,NA,NA,NA
387.6,Maui HI US AR427-AH6GR ,unknown,APRSWXNET,MA,233.76,20.875,-156.516,NA,AR427,NA,NA,NA
390,WAIKAPU 390,WAILUKU SUGAR,COOP,MA,130,20.8491,-156.5092,USC00519376,NA,NA,NA,NA
390.1,Reservoir 1,WAILUKU SUGAR,STATE,MA,335,20.85179517,-156.5238444,NA,NA,NA,NA,NA
390.2,Wailuku-Everett,EVERETT TW,STATE,MA,76,20.85512809,-156.5105114,NA,NA,NA,NA,NA
390.4,Waikapu Country Club,NWS,HydroNet-UaNet,MA,145.9992,20.8346996,-156.5135,NA,WCCH1,9320E016,NA,NA
390.5,F747,F747,HC&S,MA,125,20.84763533,-156.505028,NA,NA,NA,NA,NA
391,Hayashi,WAILUKU SUGAR,STATE,MA,104,20.83703,-156.5059,NA,NA,NA,NA,NA
391.2,F717,F717,HC&S,MA,53,20.85476999,-156.4578408,NA,NA,NA,NA,NA
392,Wailuku,WAILUKU BOYS SCHOOL,STATE,MA,61,20.89179104,-156.4971783,NA,NA,NA,NA,NA
393,Field 719,HC&S,STATE,MA,46,20.84679501,-156.4755125,NA,NA,NA,NA,NA
393.1,Herbicide Plant,HC&S,STATE,MA,30,20.85346087,-156.4555132,NA,NA,NA,NA,NA
393.2,F719,F719,HC&S,MA,76,20.84959149,-156.4820377,NA,NA,NA,NA,NA
394,Vil 6,HC&S,STATE,MA,32,20.83512925,-156.4688463,NA,NA,NA,NA,NA
394.2,F902,F902,HC&S,MA,55,20.83706303,-156.4693951,NA,NA,NA,NA,NA
395,Dairy,HC&S,STATE,MA,6,20.8851249,-156.4571797,NA,NA,NA,NA,NA
395.1,Kahului,KAHULUI RR COMPANY,STATE,MA,3,20.891791,-156.4638461,NA,NA,NA,NA,NA
396,PUUNENE 396,HC&S,COOP,MA,18,20.8717927,-156.4538466,USC00518543,NA,NA,NA,NA
396.1,Puunene Mill,HC&S,HC&S,MA,24,20.86651534,-156.4524578,NA,NA,NA,NA,NA
396.2,F711,F711,HC&S,MA,44,20.86912591,-156.4511897,NA,NA,NA,NA,NA
396.3,F713,F713,HC&S,MA,48,20.8699525,-156.4540587,NA,NA,NA,NA,NA
397,Field 606,HC&S,STATE,MA,44,20.8684595,-156.4305141,NA,NA,NA,NA,NA
397.2,Field 710,HC&S,HC&S,MA,27,20.8731814,-156.4382916,NA,NA,NA,NA,NA
397.4,F702,F702,HC&S,MA,91,20.85716186,-156.4314098,NA,NA,NA,NA,NA
397.5,F710,F710,HC&S,MA,150,20.87780745,-156.4441986,NA,NA,NA,NA,NA
398,KAHULUI AIRPORT,NOAA-NWS,NWS,MA,12,20.8887,-156.4360,USW00022516,PHOG,NA,NA,NA
398.1,Kahului Nursery,BD OF A-F,STATE,MA,6,20.89012444,-156.4455134,NA,NA,NA,NA,NA
400,SPRECKELSVILLE 400,HC&S,COOP,MA,20,20.897526,-156.41427,USC00518688,NA,NA,NA,NA
400.1,Cent'l Pow Plt,HC&S,HC&S,MA,6,20.8867914,-156.4471801,NA,NA,NA,NA,NA
400.2,Field 607,HC&S,HC&S,MA,26,20.89540151,-156.4088482,NA,NA,NA,NA,NA
400.3,F607,F607,HC&S,MA,49,20.89402698,-156.4104194,NA,NA,NA,NA,NA
401,Vil 13,HC&S,STATE,MA,117,20.83846178,-156.4121818,NA,NA,NA,NA,NA
401.1,Field 809,HC&S,STATE,MA,84,20.83346229,-156.4305144,NA,NA,NA,NA,NA
401.2,F809,F809,HC&S,MA,107,20.83524019,-156.4319358,NA,NA,NA,NA,NA
401.3,F806,F806,HC&S,MA,469,20.83874483,-156.4124556,NA,NA,NA,NA,NA
402,CAMP 10 HCS 402,HC&S,COOP,MA,108,20.85846021,-156.4038486,USC00510280,NA,NA,NA,NA
402.1,F510,F510,HC&S,MA,124,20.85981111,-156.4020622,NA,NA,NA,NA,NA
403,Field 611,HC&S,STATE,MA,43,20.898566,-156.394039,NA,NA,NA,NA,NA
403.2,F611,F611,HC&S,MA,54,20.89534923,-156.3963662,NA,NA,NA,NA,NA
404,Field 508,HC&S,STATE,MA,110,20.87512547,-156.3871825,NA,NA,NA,NA,NA
404.1,Field 603,HC&S,STATE,MA,63,20.87512555,-156.405515,NA,NA,NA,NA,NA
404.2,Upper Village 3,HC&S,HC&S,MA,35,20.88345817,-156.4171812,NA,NA,NA,NA,NA
404.6,F508,F508,HC&S,MA,120,20.87524327,-156.3882089,NA,NA,NA,NA,NA
404.7,F603,F603,HC&S,MA,82,20.87685627,-156.4060842,NA,NA,NA,NA,NA
405,Field 212,HC&S,STATE,MA,37,20.90345576,-156.3805157,NA,NA,NA,NA,NA
405.1,F212,F212,HC&S,MA,84,20.89634184,-156.3791104,NA,NA,NA,NA,NA
406,PAIA 406,HC&S,COOP,MA,50,20.9051221,-156.3738494,USC00517566,NA,NA,NA,NA
406.2,Maui Pine,HC&S,HC&S,MA,24,20.91151013,-156.3760714,NA,NA,NA,NA,NA
406.3,F208,F208,HC&S,MA,71,20.90699057,-156.3741158,NA,NA,NA,NA,NA
407,Field 209,HC&S,STATE,MA,122,20.8801249,-156.3738496,NA,NA,NA,NA,NA
407.1,F209,F209,HC&S,MA,153,20.87564139,-156.3759149,NA,NA,NA,NA,NA
410,KEAHUA 410,HC&S,COOP,MA,120,20.85846016,-156.3805162,USC00513910,NA,NA,NA,NA
411,Field 311,HC&S,STATE,MA,200,20.84512788,-156.3771832,NA,NA,NA,NA,NA
411.1,F311,F311,HC&S,MA,181,20.84564409,-156.3868064,NA,NA,NA,NA,NA
412,Gage 24,LIBBY,STATE,MA,259,20.83512865,-156.3666282,NA,NA,NA,NA,NA
413,Kaheka,HC&S,STATE,MA,120,20.89179034,-156.3638499,NA,NA,NA,NA,NA
413.1,Paia Bell House,HC&S,HC&S,MA,85,20.89678988,-156.3688496,NA,NA,NA,NA,NA
413.2,F205,F205,HC&S,MA,137,20.89217282,-156.3640467,NA,NA,NA,NA,NA
414,Kailua,HC&S,STATE,MA,212,20.86845926,-156.3621835,NA,NA,NA,NA,NA
415,Field 306,HC&S,STATE,MA,200,20.86679276,-156.3671833,NA,NA,NA,NA,NA
415.1,F306,F306,HC&S,MA,221,20.86600756,-156.3679354,NA,NA,NA,NA,NA
416,Field 102,HC&S,STATE,MA,98,20.90512189,-156.3505168,NA,NA,NA,NA,NA
416.1,F102,F102,HC&S,MA,176,20.90032024,-156.3489987,NA,NA,NA,NA,NA
417,Field 201,HC&S,STATE,MA,218,20.88012476,-156.3521838,NA,NA,NA,NA,NA
417.1,F201,F201,HC&S,MA,276,20.87584239,-156.3509271,NA,NA,NA,NA,NA
419,Field 301,HC&S,STATE,MA,328,20.8467943,-156.3505175,NA,NA,NA,NA,NA
419.1,F301,F301,HC&S,MA,354,20.84919845,-156.3507995,NA,NA,NA,NA,NA
420,Gage 25,LIBBY,STATE,MA,369,20.83290652,-156.3471846,NA,NA,NA,NA,NA
420.1,F307,F307,HC&S,MA,345,20.83446023,-156.3556341,NA,NA,NA,NA,NA
421,Field 236,MAUI PINE,STATE,MA,201,20.89678971,-156.3405173,NA,NA,NA,NA,NA
421.2,Field 205,MAUI PINE,STATE,MA,201,20.90345543,-156.3305175,NA,NA,NA,NA,NA
421.4,F116,F116,HC&S,MA,287,20.89378893,-156.3338403,NA,NA,NA,NA,NA
422,Paholei,HC&S,STATE,MA,261,20.87679172,-156.3438508,NA,NA,NA,NA,NA
423,HALIIMAILE 423,MAUI PINE,COOP,MA,326,20.86679262,-156.3405177,USC00511075,NA,NA,NA,NA
423.1,Field 227,MAUI PINE,STATE,MA,262,20.87345873,-156.347184,NA,NA,NA,NA,NA
424,Field 271,MAUI LAND&PINE,STATE,MA,393,20.84957182,-156.3405179,NA,NA,NA,NA,NA
424.2,F300,F300,HC&S,MA,336,20.85869098,-156.3485662,NA,NA,NA,NA,NA
425,Field 252,MAUI PINE,STATE,MA,366,20.865227,-156.331861,NA,NA,NA,NA,NA
425.1,Grove Ranch,MAUI AG,STATE,MA,372,20.87179216,-156.3271849,NA,NA,NA,NA,NA
425.2,Kaluanui,HARRY BALDWIN,STATE,MA,402,20.8701256,-156.3205184,NA,NA,NA,NA,NA
425.3,PUUOMALEI,LIBBY,COOP,MA,430,20.87345863,-156.313852,USC00518559,NA,NA,NA,NA
425.4,Komoko,ISLAND PINE,STATE,MA,448,20.86845905,-156.3071857,NA,NA,NA,NA,NA
426,Gage 21,LIBBY,STATE,MA,491,20.83012893,-156.3355184,NA,NA,NA,NA,NA
426.1,Gage 19,LIBBY,STATE,MA,381,20.83346203,-156.345518,NA,NA,NA,NA,NA
426.2,Field 46 (1625),MAUI LAND&PINE,STATE,MA,495,20.83290648,-156.3338519,NA,NA,NA,NA,NA
426.3,Gage 20,LIBBY,STATE,MA,404,20.84679427,-156.3405179,NA,NA,NA,NA,NA
426.4,Makawao,LIBBY,STATE,MA,482,20.8329065,-156.3388516,NA,NA,NA,NA,NA
426.5,Pukalani Terrace,J TABONIAR,STATE,MA,434,20.83151773,-156.3424626,NA,NA,NA,NA,NA
426.6,Pukalani,NWS,HydroNet-UaNet,MA,495.9096,20.8355007,-156.3307,NA,PUKH1,15D2B52E,NA,NA
427,Field 273,MAUI PINE,STATE,MA,518,20.83346198,-156.3288521,NA,NA,NA,NA,NA
430,Field 242,MAUI PINE,STATE,MA,354,20.88012466,-156.3255181,NA,NA,NA,NA,NA
